id,title,region_id,address,serial_number,email,owner,ownership_type,phone,place_type,created_at,updated_at,type_id,msisdn,is_user_submitted,latitude,longitude,alternative_names,status,hmis,remarks,registration_num,source,current_id
12834,Bangata,17759,,436,,MOHSW/LGA,Government,,,2013-01-24 00:17:10.611976+00,2013-01-24 00:17:10.612013+00,16,,f,-3.35846,36.74747,"",Operating,19,"",19,NIMR,202001
12835,Bangata Lutheran,17760,,437,,Lutheran,FBO,,,2013-01-24 00:17:10.645592+00,2013-01-24 00:17:10.645641+00,16,,f,-3.33578,36.74475,"",Operating,17,"",17,NIMR,202002
12836,Burka,17756,,488,,"","",,,2013-01-24 00:17:10.663378+00,2013-01-24 00:17:10.663422+00,16,,f,-3.35974,36.65459,"",Closed,"","","",NIMR,202078
12837,Bwawani,17762,,438,,MOHSW/LGA,Government,,,2013-01-24 00:17:10.69841+00,2013-01-24 00:17:10.698455+00,16,,f,-3.6078,36.88428,"",Operating,15,"",15,NIMR,202003
12838,Chekereni,17756,,477,,"","",,,2013-01-24 00:17:10.718794+00,2013-01-24 00:17:10.718849+00,16,,f,-3.40891,36.74601,"",Closed,"","","",NIMR,202057
12839,COGI Ngaramtoni,17765,,439,,Assemblies of God,FBO,,,2013-01-24 00:17:10.757406+00,2013-01-24 00:17:10.757446+00,16,,f,-3.31576,36.63886,"",Operating,13,"",13,NIMR,202004
12840,Cogi Oldonyosambu,17756,,489,,Assemblies of God,FBO,,,2013-01-24 00:17:10.775418+00,2013-01-24 00:17:10.775459+00,16,,f,,,"",Operating,36,"","","",202079
12841,Ekenywa,17765,,440,,Others,FBO,,,2013-01-24 00:17:10.808224+00,2013-01-24 00:17:10.808269+00,16,,f,,,"",Operating,38,"",38,MMAM,202005
12842,Ilboru,17767,,441,,Lutheran,FBO,,,2013-01-24 00:17:10.843759+00,2013-01-24 00:17:10.843812+00,16,,f,-3.35,36.68833,"",Operating,27,"",27,NIMR,202007
12843,Ilkrevi,17771,,478,,MOHSW/LGA,Government,,,2013-01-24 00:17:10.88162+00,2013-01-24 00:17:10.881669+00,16,,f,,,"",Under Construction,"","","","",202059
12844,Imbibya,17774,,479,,MOHSW/LGA,Government,,,2013-01-24 00:17:10.919217+00,2013-01-24 00:17:10.91925+00,16,,f,,,"",Under Construction,"","","","",202060
12845,K. Maasai,17776,,480,,Others,FBO,,,2013-01-24 00:17:10.95383+00,2013-01-24 00:17:10.953882+00,16,,f,,,"",Operating,"","",37,"",202061
12846,Kimnyaki,17777,,442,,MOHSW/LGA,Government,,,2013-01-24 00:17:10.987485+00,2013-01-24 00:17:10.987536+00,16,,f,-3.29838,36.65682,"",Operating,30,"",30,NIMR,202008
12847,Kimnyaki Maasai,17756,,443,,Private,Private,,,2013-01-24 00:17:11.006082+00,2013-01-24 00:17:11.006135+00,16,,f,-3.31501,36.64099,"",Operating,37,"","",NIMR,202009
12848,Kioga,17779,,444,,MOHSW/LGA,Government,,,2013-01-24 00:17:11.040961+00,2013-01-24 00:17:11.041009+00,16,,f,-3.3255,36.69812,"",Operating,31,"",31,NIMR,202010
12849,Kiranyi,17781,,445,,MOHSW/LGA,Government,,,2013-01-24 00:17:11.075161+00,2013-01-24 00:17:11.075201+00,16,,f,-3.34254,36.66816,"",Operating,10,"",10,NIMR,202011
12850,Kiseriani,17783,,446,,MOHSW/LGA,Government,,,2013-01-24 00:17:11.109038+00,2013-01-24 00:17:11.109082+00,16,,f,-3.45016,36.73889,"",Operating,16,"",16,NIMR,202012
12851,Kisongo charity,17756,,447,,Private,Private,,,2013-01-24 00:17:11.127897+00,2013-01-24 00:17:11.127951+00,16,,f,-3.37388,36.57012,"",Operating,Not Allocated,"","",NIMR,202013
12852,Kisongo Luthreran,17786,,448,,Lutheran,FBO,,,2013-01-24 00:17:11.164344+00,2013-01-24 00:17:11.16438+00,16,,f,-3.35974,36.65459,"",Operating,9,"",46,NIMR,202014
12853,Kisongo SDA,17788,,449,,Private,Private,,,2013-01-24 00:17:11.202912+00,2013-01-24 00:17:11.20295+00,16,,f,-3.37107,36.54669,"",Operating,39,"","",NIMR,202015
12854,Kogi Oldonyosambo,17790,,481,,Private,Private,,,2013-01-24 00:17:11.236832+00,2013-01-24 00:17:11.236886+00,16,,f,,,"",Operating,"","",36,"",202062
12855,Legijave,17756,,450,,MOHSW/LGA,Government,,,2013-01-24 00:17:11.254442+00,2013-01-24 00:17:11.254496+00,16,,f,,,"",Operating,Not Allocated,"","","",202016
12856,Lemugur,17792,,451,,MOHSW/LGA,Government,,,2013-01-24 00:17:11.286463+00,2013-01-24 00:17:11.286623+00,16,,f,-3.43316,36.5608,"",Closed,40,"","",NIMR,202017
12857,Lengijave,17794,,482,,MOHSW/LGA,Government,,,2013-01-24 00:17:11.325775+00,2013-01-24 00:17:11.325825+00,16,,f,,,"",Operating,"","","","",202063
12858,Lesiraa,17795,,452,,MOHSW/LGA,Government,,,2013-01-24 00:17:11.358339+00,2013-01-24 00:17:11.358381+00,16,,f,,,"",Operating,50,"",51,"",202018
12859,Likamba,17797,,453,,MOHSW/LGA,Government,,,2013-01-24 00:17:11.392743+00,2013-01-24 00:17:11.392792+00,16,,f,,,"",Operating,Not Allocated,"","","",202019
12860,Losinoni,17799,,454,,MOHSW/LGA,Government,,,2013-01-24 00:17:11.428171+00,2013-01-24 00:17:11.428205+00,16,,f,-3.13219,36.72003,"",Operating,24,"",24,NIMR,202020
12861,M&M Kiwera,17800,,455,,Private,Private,,,2013-01-24 00:17:11.461155+00,2013-01-24 00:17:11.461198+00,16,,f,,,"",Operating,35,"",35,MMAM,202021
12862,Majimoto,17803,,483,,MOHSW/LGA,Government,,,2013-01-24 00:17:11.496901+00,2013-01-24 00:17:11.496942+00,16,,f,,,"",Under Construction,"","","","",202064
12863,Manyire,17801,,484,,MOHSW/LGA,Government,,,2013-01-24 00:17:11.520129+00,2013-01-24 00:17:11.520171+00,16,,f,,,"",Operating,"","",50,"",202065
12864,Manyire,17806,,490,,MOHSW/LGA,Government,,,2013-01-24 00:17:11.555126+00,2013-01-24 00:17:11.555175+00,16,,f,,,"",Operating,"","","","",202080
12865,Mbuyuni,17808,,456,,MOHSW/LGA,Government,,,2013-01-24 00:17:11.592382+00,2013-01-24 00:17:11.592415+00,17,,f,-3.57432,36.66586,"",Operating,8,"",8,NIMR,202023
12866,Moivo,17756,,457,,MOHSW/LGA,Government,,,2013-01-24 00:17:11.609036+00,2013-01-24 00:17:11.609079+00,16,,f,,,"",Operating,51,"","","",202026
12867,Moshono,17811,,458,,MOHSW/LGA,Government,,,2013-01-24 00:17:11.65022+00,2013-01-24 00:17:11.65026+00,16,,f,-3.40497,36.73009,"",Under Construction,28,"","",NIMR,202027
12868,Mungushi,17812,,459,,MOHSW/LGA,Government,,,2013-01-24 00:17:11.682977+00,2013-01-24 00:17:11.683022+00,16,,f,-3.53055,36.83489,"",Operating,14,"",14,NIMR,202028
12869,Musa,17813,,460,,MOHSW/LGA,Government,,,2013-01-24 00:17:11.720891+00,2013-01-24 00:17:11.720942+00,16,,f,-3.32389,36.52039,"",Operating,7,"",7,NIMR,202029
12870,Mwandet,17815,,461,,MOHSW/LGA,Government,,,2013-01-24 00:17:11.758205+00,2013-01-24 00:17:11.758257+00,16,,f,-3.24042,36.53881,"",Operating,12,"",12,NIMR,202031
12871,Nduruma,17817,,462,,MOHSW/LGA,Government,,,2013-01-24 00:17:11.795968+00,2013-01-24 00:17:11.796011+00,17,,f,-3.48,36.79309,"",Operating,3,"",3,NIMR,202032
12872,Ngires,17819,,463,,MOHSW/LGA,Government,,,2013-01-24 00:17:11.835872+00,2013-01-24 00:17:11.835931+00,16,,f,-3.33731,36.73461,"",Operating,18,"",18,NIMR,202033
12873,Ngorbobo,17820,,464,,MOHSW/LGA,Government,,,2013-01-24 00:17:11.875272+00,2013-01-24 00:17:11.875314+00,16,,f,,,"",Operating,48,"",52,"",202034
12874,Oldadai,17822,,465,,MOHSW/LGA,Government,,,2013-01-24 00:17:11.914247+00,2013-01-24 00:17:11.914303+00,16,,f,,,"",Operating,21,"",21,"",202038
12875,Oldonyo Sambu,17823,,466,,MOHSW/LGA,Government,,,2013-01-24 00:17:11.952675+00,2013-01-24 00:17:11.952719+00,17,,f,-2.10863,35.49841,"",Operating,23,"",23,NIMR,202039
12876,Oldonyo Sapuk,17825,,467,,MOHSW/LGA,Government,,,2013-01-24 00:17:11.997819+00,2013-01-24 00:17:11.997942+00,16,,f,-3.32929,36.70938,"",Operating,43,Edited name from OldonyoSapuk to Oldonyo Sapuk,42,NIMR,202040
12877,Oldonyowasi,17826,,485,,MOHSW/LGA,Government,,,2013-01-24 00:17:12.032101+00,2013-01-24 00:17:12.032144+00,16,,f,,,"",Under Construction,"","","","",202066
12878,Olgilai,17827,,468,,MOHSW/LGA,Government,,,2013-01-24 00:17:12.064821+00,2013-01-24 00:17:12.06487+00,16,,f,-3.34235,36.72194,"",Operating,20,"",20,NIMR,202041
12879,Oljoro,17830,,469,,Private,Private,,,2013-01-24 00:17:12.098772+00,2013-01-24 00:17:12.098811+00,16,,f,-3.33633,36.66015,"",Operating,Not Allocated,"","",NIMR,202042
12880,Oljoro JKT,17831,,470,,TPDF,Government,,,2013-01-24 00:17:12.133033+00,2013-01-24 00:17:12.133074+00,16,,f,-3.4119,36.6599,"",Operating,44,"",44,NIMR,202043
12881,Olkerian,17833,,471,,MOHSW/LGA,Government,,,2013-01-24 00:17:12.167973+00,2013-01-24 00:17:12.168016+00,16,,f,,,"",Under Construction,25,"","","",202044
12882,Olkokola,17835,,472,,RC,FBO,,,2013-01-24 00:17:12.205215+00,2013-01-24 00:17:12.20526+00,17,,f,-3.2466,36.64519,"",Operating,Not Allocated,"",33,NIMR,202045
12883,Olmontonyi,17836,,473,,Parastatal,Government,,,2013-01-24 00:17:12.237719+00,2013-01-24 00:17:12.237764+00,16,,f,-3.29013,36.65655,"",Operating,33,Edited name from Olmotonyi to Olmontonyi,34,NIMR,202047
12884,Oltrument,17838,,474,,MOHSW/LGA,Government,,,2013-01-24 00:17:12.269623+00,2013-01-24 00:17:12.269666+00,17,,f,-3.18181,36.36315,"",Operating,34,"",2,Other,202048
12885,PAG Kisongo,17772,,486,,Private,Private,,,2013-01-24 00:17:12.290329+00,2013-01-24 00:17:12.290372+00,16,,f,,,"",Operating,"","",32,"",202067
12886,SDA kisongo,17840,,487,,SDA,FBO,,,2013-01-24 00:17:12.325236+00,2013-01-24 00:17:12.325279+00,16,,f,,,"",Operating,"","",39,"",202068
12887,Selian Hospital,17841,,7067,,Lutheran,FBO,,,2013-01-24 00:17:12.358875+00,2013-01-24 00:17:12.358908+00,18,,f,,,"",Operating,1,"","","",202052
12888,Themi Ya Simba,17842,,476,,MOHSW/LGA,Government,,,2013-01-24 00:17:12.390427+00,2013-01-24 00:17:12.390468+00,16,,f,-3.58107,36.7854,"",Operating,Not Allocated,"",46,NIMR,202055
12889,ZAAC,17845,,491,,Private,Private,,,2013-01-24 00:17:12.429667+00,2013-01-24 00:17:12.429716+00,16,,f,,,ZAAC I Daraja II,Operating,70,"","","",202081
12890,AICC,17848,,493,,Parastatal,Government,,,2013-01-24 00:17:12.465308+00,2013-01-24 00:17:12.465361+00,18,,f,-3.22469,36.41942,"",Operating,25,"",23001,Other,203002
12891,Arusha,17768,,559,,"","",,,2013-01-24 00:17:12.484521+00,2013-01-24 00:17:12.484572+00,16,,f,-3.38023,36.70745,"",Closed,"","","","",203079
12892,Arusha & Lab.Services,17851,,494,,Others,FBO,,,2013-01-24 00:17:12.523769+00,2013-01-24 00:17:12.52382+00,16,,f,,,"",Operating,79,"","","",203003
12893,Arusha Hospital for Women,17853,,495,,Private,Private,,,2013-01-24 00:17:12.559067+00,2013-01-24 00:17:12.559117+00,17,,f,-3.36111,36.68531,"",Operating,23,"",704,"",203004
12894,Arusha Lutheran Center,17855,,496,,Lutheran,FBO,,,2013-01-24 00:17:12.595151+00,2013-01-24 00:17:12.595193+00,18,,f,,,"",Operating,"","","",MMAM,203005
12895,Arusha Med Centre,17855,,497,,Private,Private,,,2013-01-24 00:17:12.62614+00,2013-01-24 00:17:12.626182+00,16,,f,-3.3657,36.68237,"",Operating,88,"","","",203006
12896,Arusha School,17857,,498,,Private,Private,,,2013-01-24 00:17:12.660975+00,2013-01-24 00:17:12.661018+00,16,,f,,,"",Operating,31,"","","",203007
12897,Arusha X-Ray Centre,17848,,500,,Private,Private,,,2013-01-24 00:17:12.692556+00,2013-01-24 00:17:12.692615+00,16,,f,-3.36579,36.69897,"",Operating,16,"","","",203009
12898,Bagari Majengo,17768,,502,,Private,Private,,,2013-01-24 00:17:12.713844+00,2013-01-24 00:17:12.713899+00,16,,f,,,Pacific,Operating,20,"","","",203011
12899,Baraa RC,17859,,503,,RC,FBO,,,2013-01-24 00:17:12.757783+00,2013-01-24 00:17:12.757825+00,16,,f,-3.38611,36.73593,"",Operating,17,"","",Other,203012
12900,Bikira Maria Mama Wa Huruma,17768,,560,,Private,Private,,,2013-01-24 00:17:12.776776+00,2013-01-24 00:17:12.776833+00,16,,f,-3.3657,36.68762,"",Closed,93,"","","",203080
12901,Burhan,17768,,561,,Private,Private,,,2013-01-24 00:17:12.79552+00,2013-01-24 00:17:12.795562+00,16,,f,,,"",Closed,"","","","",203081
12902,Canosa,17768,,504,,RC,FBO,,,2013-01-24 00:17:12.814437+00,2013-01-24 00:17:12.814497+00,16,,f,-3.45545,36.71152,"",Operating,83,"","",Other,203013
12903,CCGI Daraja II,17768,,505,,Private,Private,,,2013-01-24 00:17:12.833554+00,2013-01-24 00:17:12.833609+00,16,,f,-3.23246,36.41441,"",Operating,64,"","",Other,203015
12904,COGI Kijenge,17768,,506,,Private,Private,,,2013-01-24 00:17:12.851236+00,2013-01-24 00:17:12.851284+00,16,,f,,,"",Operating,59,"","","",203017
12905,COGI Unga Ltd,17768,,562,,"","",,,2013-01-24 00:17:12.870809+00,2013-01-24 00:17:12.870853+00,16,,f,-3.38247,36.67402,"",Closed,"","","","",203083
12906,EBCM,17768,,563,,"","",,,2013-01-24 00:17:12.892348+00,2013-01-24 00:17:12.892402+00,16,,f,-3.36543,36.68956,"",Closed,"","","","",203084
12907,Eben,17853,,507,,Private,Private,,,2013-01-24 00:17:12.925653+00,2013-01-24 00:17:12.925696+00,16,,f,,,"",Operating,Not Allocated,"","","",203018
12908,Elerai West End,17861,,508,,Private,Private,,,2013-01-24 00:17:12.962427+00,2013-01-24 00:17:12.962475+00,16,,f,-3.21757,36.4026799999,Silent Inn,Operating,74,"","","",203019
12909,Elerani,17768,,509,,Private,Private,,,2013-01-24 00:17:12.982587+00,2013-01-24 00:17:12.982639+00,16,,f,-3.36776,36.68701,"",Operating,"","","","",203020
12910,Engosengui,17768,,510,,Private,Private,,,2013-01-24 00:17:13.002452+00,2013-01-24 00:17:13.002583+00,16,,f,-3.41706,36.68766,"",Operating,7,"","","",203021
12911,Faith,17768,,564,,Private,Private,,,2013-01-24 00:17:13.022288+00,2013-01-24 00:17:13.02233+00,16,,f,,,"",Operating,"","","","",203085
12912,FARAJA,17862,,511,,Private,Private,,,2013-01-24 00:17:13.057934+00,2013-01-24 00:17:13.05801+00,16,,f,-3.37222,36.68125,"",Operating,"","","","",203022
12913,Fauna,17768,,565,,"","",,,2013-01-24 00:17:13.078164+00,2013-01-24 00:17:13.078207+00,16,,f,,,"",Closed,"","","","",203086
12914,Gloria,17848,,512,,Private,Private,,,2013-01-24 00:17:13.109624+00,2013-01-24 00:17:13.109666+00,16,,f,-3.36175,36.69719,"",Operating,2,"","","",203024
12915,GMD,17768,,566,,"","",,,2013-01-24 00:17:13.129021+00,2013-01-24 00:17:13.129063+00,16,,f,-3.3605,36.9603,"",Closed,"","","","",203087
12916,Gogi,17768,,567,,"","",,,2013-01-24 00:17:13.148046+00,2013-01-24 00:17:13.14809+00,16,,f,-3.37886,36.70675,"",Closed,"","","","",203088
12917,Green Hope,17768,,513,,Private,Private,,,2013-01-24 00:17:13.170754+00,2013-01-24 00:17:13.170865+00,16,,f,,,"",Operating,Not Allocated,"","","",203025
12918,Gwass Sanawari,17848,,514,,Private,Private,,,2013-01-24 00:17:13.203219+00,2013-01-24 00:17:13.203261+00,16,,f,,,"",Operating,50,"","","",203026
12919,Happy,17768,,568,,"","",,,2013-01-24 00:17:13.220496+00,2013-01-24 00:17:13.220538+00,16,,f,,,"",Closed,"","","","",203091
12920,Health Master,17768,,515,,Private,Private,,,2013-01-24 00:17:13.243145+00,2013-01-24 00:17:13.243201+00,16,,f,,,"",Operating,Not Allocated,"","","",203027
12921,Heri GOOD SAMARITAN,17864,,516,,Private,Private,,,2013-01-24 00:17:13.277129+00,2013-01-24 00:17:13.277184+00,16,,f,-3.2318,36.41117,"",Operating,14,"","",Other,203028
12922,Holy Family,17866,,517,,Private,Private,,,2013-01-24 00:17:13.314062+00,2013-01-24 00:17:13.314102+00,16,,f,-3.41215,36.70756,"",Operating,78,"","","",203029
12923,Huruma Kanora,17845,,518,,Private,Private,,,2013-01-24 00:17:13.350844+00,2013-01-24 00:17:13.350887+00,16,,f,,,"",Operating,66,"","",MMAM,203030
12924,Huruma Kimandolu,17868,,519,,Private,Private,,,2013-01-24 00:17:13.387326+00,2013-01-24 00:17:13.387376+00,16,,f,-3.41899,36.65817,"",Operating,60,"","","",203031
12925,I. C. M. Fellowship,17870,,520,,Private,Private,,,2013-01-24 00:17:13.424973+00,2013-01-24 00:17:13.42512+00,16,,f,,,"",Operating,29,"","","",203032
12926,ICD,17768,,521,,"",FBO,,,2013-01-24 00:17:13.445171+00,2013-01-24 00:17:13.445213+00,16,,f,,,"",Operating,26,"","","",203033
12927,ICH,17768,,522,,"",FBO,,,2013-01-24 00:17:13.465725+00,2013-01-24 00:17:13.465766+00,16,,f,,,"",Operating,22,"","","",203034
12928,Jobi,17870,,523,,Private,Private,,,2013-01-24 00:17:13.494595+00,2013-01-24 00:17:13.49465+00,17,,f,-3.22501,36.40562,"",Operating,15,"",583,Other,203035
12929,Kaloleni,17853,,524,,MOHSW/LGA,Government,,,2013-01-24 00:17:13.525121+00,2013-01-24 00:17:13.525176+00,17,,f,-3.22159,36.41303,"",Operating,34,"","",Other,203036
12930,KAM Med Centre,17872,,525,,Private,Private,,,2013-01-24 00:17:13.561686+00,2013-01-24 00:17:13.561736+00,17,,f,-3.37106,36.68898,"",Operating,3,"","","",203037
12931,Kanora  Huruma,17768,,569,,"","",,,2013-01-24 00:17:13.578721+00,2013-01-24 00:17:13.578776+00,16,,f,-3.3875,36.68182,"",Closed,"","","","",203094
12932,Kerai TAG,17768,,570,,"","",,,2013-01-24 00:17:13.596177+00,2013-01-24 00:17:13.59623+00,16,,f,,,"",Closed,"","","",MMAM,203095
12933,Kijenge RC,17851,,571,,RC,FBO,,,2013-01-24 00:17:13.627923+00,2013-01-24 00:17:13.627976+00,16,,f,-3.38148,36.70834,"",Operating,"","","",Other,203096
12934,Kijenge SDA,17768,,572,,"","",,,2013-01-24 00:17:13.645151+00,2013-01-24 00:17:13.645194+00,16,,f,-3.22441,36.42473,"",Closed,"","","",Other,203097
12935,LCC Ngarenaro west End,17801,,573,,Private,Private,,,2013-01-24 00:17:13.665258+00,2013-01-24 00:17:13.665313+00,16,,f,-3.36268,36.67118,"",Closed,"","","","",203098
12936,Levolosi,17855,,526,,MOHSW/LGA,Government,,,2013-01-24 00:17:13.696467+00,2013-01-24 00:17:13.696519+00,17,,f,-3.37227,36.67994,"",Operating,37,"","",NIMR,203038
12937,Lulu,17874,,527,,Private,Private,,,2013-01-24 00:17:13.730288+00,2013-01-24 00:17:13.730331+00,16,,f,-3.37818,36.66236,"",Operating,77,"","","",203039
12938,Magereza,17877,,551,,Prisons,Government,,,2013-01-24 00:17:13.76566+00,2013-01-24 00:17:13.765713+00,16,,f,,,"",Operating,6,"","","",20368
12939,Malaika,17768,,528,,"","",,,2013-01-24 00:17:13.781229+00,2013-01-24 00:17:13.781282+00,16,,f,-3.38035,36.67429,"",Closed,"","","","",203041
12940,Mama Beba Mtoto Maternity,17768,,529,,Private,Private,,,2013-01-24 00:17:13.802136+00,2013-01-24 00:17:13.802179+00,16,,f,-3.36686,36.681,"",Operating,"","","","",203042
12941,Marie Stopes,17855,,530,,Private,Private,,,2013-01-24 00:17:13.83652+00,2013-01-24 00:17:13.836575+00,16,,f,-3.37478,36.68439,"",Operating,43,"",23002,"",203043
12942,Mateves,17877,,574,,MOHSW/LGA,Government,,,2013-01-24 00:17:13.867529+00,2013-01-24 00:17:13.867572+00,16,,f,,,"",Under Construction,"","","","",203100
12943,Mkonoo,17879,,531,,MOHSW/LGA,Government,,,2013-01-24 00:17:13.899718+00,2013-01-24 00:17:13.899769+00,17,,f,-3.46341,36.69767,"",Operating,36,"","",NIMR,203044
12944,Moivaro,17881,,552,,MOHSW/LGA,Government,,,2013-01-24 00:17:13.932633+00,2013-01-24 00:17:13.932685+00,17,,f,,,"",Operating,22,"","","",20369
12945,Moshi Arusha Occupational  Services,17857,,532,,Private,Private,,,2013-01-24 00:17:13.963456+00,2013-01-24 00:17:13.963505+00,16,,f,-3.37668,36.69843,"",Operating,84,"","","",203045
12946,Mount Meru,17848,,533,,MOHSW/LGA,Government,,,2013-01-24 00:17:13.992906+00,2013-01-24 00:17:13.99296+00,18,,f,-3.36411,36.69412,"",Operating,24,"","",Other,203046
12947,NAMDC,17883,,492,,"",FBO,,,2013-01-24 00:17:14.026971+00,2013-01-24 00:17:14.02702+00,16,,f,,,"",Operating,39,"","","",203001
12948,NAMDS Njiro,17768,,534,,"","",,,2013-01-24 00:17:14.04322+00,2013-01-24 00:17:14.043276+00,16,,f,,,"",Closed,"","","","",203047
12949,Nanenane,17768,,535,,Private,Private,,,2013-01-24 00:17:14.05965+00,2013-01-24 00:17:14.059703+00,16,,f,-3.40057,36.7048,"",Operating,"","","","",203048
12950,Neema,17855,,501,,Private,Private,,,2013-01-24 00:17:14.094098+00,2013-01-24 00:17:14.094153+00,16,,f,,,Neema,Operating,58,"","","",203010
12951,Ngarenaro,17855,,536,,MOHSW/LGA,Government,,,2013-01-24 00:17:14.126755+00,2013-01-24 00:17:14.12681+00,17,,f,-3.361913,36.676328,"",Operating,35,"","","",203050
12952,Okoa,17851,,537,,Others,FBO,,,2013-01-24 00:17:14.154814+00,2013-01-24 00:17:14.15487+00,16,,f,,,"",Operating,69,"","","",203051
12953,Old Arusha clinic,17857,,538,,Private,Private,,,2013-01-24 00:17:14.183992+00,2013-01-24 00:17:14.184035+00,17,,f,-3.37438,36.69721,"",Operating,21,"",23051,"",203052
12954,PAG Sanawari,17768,,539,,"","",,,2013-01-24 00:17:14.20292+00,2013-01-24 00:17:14.202967+00,16,,f,,,"",Closed,"","","","",203054
12955,PAG Sombetini,17768,,540,,"","",,,2013-01-24 00:17:14.221424+00,2013-01-24 00:17:14.221479+00,16,,f,,,"",Closed,"","","","",203055
12956,Police,17853,,541,,Police,Government,,,2013-01-24 00:17:14.252036+00,2013-01-24 00:17:14.252091+00,16,,f,-3.36801,36.69157,"",Operating,"","","","",203056
12957,SANAWARI,17884,,542,,Private,Private,,,2013-01-24 00:17:14.287719+00,2013-01-24 00:17:14.287761+00,16,,f,-3.36221,36.9582,"",Operating,95,"","","",203058
12958,Seliani Town Clinic,17855,,499,,Lutheran,FBO,,,2013-01-24 00:17:14.31684+00,2013-01-24 00:17:14.316893+00,16,,f,-3.21665,36.41113,"",Operating,55,"","",Other,203008
12959,Shabana,17768,,543,,"","",,,2013-01-24 00:17:14.335721+00,2013-01-24 00:17:14.335776+00,16,,f,,,"",Closed,"","","","",203060
12960,Shree Hindu Mandal,17872,,544,,Private,Private,,,2013-01-24 00:17:14.366314+00,2013-01-24 00:17:14.366357+00,17,,f,-3.37436,36.68843,"",Operating,61,"",312,Other,203061
12961,Sikh Temple,17855,,545,,Private,Private,,,2013-01-24 00:17:14.400655+00,2013-01-24 00:17:14.400697+00,16,,f,-3.37496,36.68488,"",Operating,49,"","","",203062
12962,Sombetini,17885,,578,,MOHSW/LGA,Government,,,2013-01-24 00:17:14.427235+00,2013-01-24 00:17:14.427279+00,16,,f,,,"",Operating,"","","","",203106
12963,Soweto,17853,,546,,Private,Private,,,2013-01-24 00:17:14.461941+00,2013-01-24 00:17:14.462004+00,17,,f,-3.36543,36.68706,"",Operating,72,"",23042,"",203063
12964,St. Elizabeth,17870,,547,,RC,FBO,,,2013-01-24 00:17:14.502241+00,2013-01-24 00:17:14.502286+00,18,,f,-3.357245,36.677003,"",Operating,27,"","","",203064
12965,St. Michael,17866,,548,,Private,Private,,,2013-01-24 00:17:14.540084+00,2013-01-24 00:17:14.540141+00,16,,f,-3.37752,36.68299,"",Operating,76,"","",Other,203065
12966,St. Thomas,17872,,549,,Private,Private,,,2013-01-24 00:17:14.579405+00,2013-01-24 00:17:14.579449+00,17,,f,-3.37248,36.68867,"",Operating,86,"","",NIMR,203066
12967,St. Veronica,17768,,550,,Private,Private,,,2013-01-24 00:17:14.603292+00,2013-01-24 00:17:14.603352+00,16,,f,-3.36674,36.67218,"",Operating,48,"","","",203067
12968,TAG Kijenge,17768,,553,,"","",,,2013-01-24 00:17:14.631484+00,2013-01-24 00:17:14.631526+00,16,,f,,,"",Closed,"","","","",203070
12969,Tanganyika Packers JWTZ,17886,,576,,TPDF,Government,,,2013-01-24 00:17:14.673149+00,2013-01-24 00:17:14.673192+00,16,,f,,,"",Operating,"","","","",203104
12970,Terrat,17888,,577,,MOHSW/LGA,Government,,,2013-01-24 00:17:14.719627+00,2013-01-24 00:17:14.719684+00,16,,f,,,"",Operating,Not Allocated,"","","",203105
12971,Terrat Road,17866,,554,,Private,Private,,,2013-01-24 00:17:14.765526+00,2013-01-24 00:17:14.765571+00,16,,f,-3.38132,36.686,"",Operating,67,"","","",203072
12972,Themi,17857,,555,,MOHSW/LGA,Government,,,2013-01-24 00:17:14.831586+00,2013-01-24 00:17:14.831776+00,17,,f,-3.39844,36.7011,"",Operating,12,"","",NIMR,203073
12973,Total Care,17768,,556,,Private,Private,,,2013-01-24 00:17:14.859035+00,2013-01-24 00:17:14.859092+00,16,,f,,,"",Operating,Not Allocated,"","","",203074
12974,Umasita,17768,,575,,"","",,,2013-01-24 00:17:14.885876+00,2013-01-24 00:17:14.885933+00,16,,f,-3.37741,36.65916,"",Closed,"","","","",203103
12975,Upendo,17848,,557,,Private,Private,,,2013-01-24 00:17:14.929879+00,2013-01-24 00:17:14.929923+00,16,,f,-3.36001,36.69614,"",Operating,75,"","","",203075
12976,Upone,17861,,558,,Private,Private,,,2013-01-24 00:17:14.9754+00,2013-01-24 00:17:14.975461+00,16,,f,-3.37977,36.67019,"",Operating,47,"","","",203076
12977,Arri Tsaayo,17893,,7282,,LGA,Government,,,2013-01-24 00:17:15.027393+00,2013-01-24 00:17:15.027447+00,16,,f,-4.14484,35.35371,"",Operating,55,"","","",2101002
12978,BAKWATA Gallapo,17896,,7283,,BAKWATA,FBO,,,2013-01-24 00:17:15.071049+00,2013-01-24 00:17:15.071106+00,16,,f,-4.17198,35.51254,BAKWATA,Operating,33,Edited name fromBkwata Gallapo to BAKWATA Gallapo,"","",2101008
12979,Buma,17891,,7285,,RC,FBO,,,2013-01-24 00:17:15.105185+00,2013-01-24 00:17:15.105243+00,18,,f,-4.24132,35.49295,"",Operating,Not Allocated,"",AR/KIJ/242,"",2101012
12980,Dabil,17898,,7286,,LGA,Government,,,2013-01-24 00:17:15.175041+00,2013-01-24 00:17:15.175106+00,16,,f,,,MANDI,Operating,53,"","","",2101013
12981,Dareda l,17900,,7287,,RC,FBO,,,2013-01-24 00:17:15.226856+00,2013-01-24 00:17:15.226914+00,18,,f,-4.14428,35.295,Babati Council,Operating,3,Babati DC Desiganted Hospital (formely known as Dareda Mission),"","",2101015
12982,Dohomu,17901,,7288,,LGA,Government,,,2013-01-24 00:17:15.282421+00,2013-01-24 00:17:15.28262+00,16,,f,,,"",Operating,47,Edited name from Dohom to Dohomu,"","",2101016
12983,Duru,17903,,7289,,LGA,Government,,,2013-01-24 00:17:15.328833+00,2013-01-24 00:17:15.328874+00,16,,f,,,"",Operating,62,"",AR/KIJ/216,"",2101017
12984,Endabeg,17905,,7327,,Lutheran,FBO,,,2013-01-24 00:17:15.373095+00,2013-01-24 00:17:15.373138+00,16,,f,,,"",Closed,"","",AR/KIJ/232,"",2101068
12985,Endagwe,17906,,7290,,LGA,Government,,,2013-01-24 00:17:15.415022+00,2013-01-24 00:17:15.415081+00,16,,f,-4.21319,35.38912,"",Operating,39,"",AR/KIJ/217,"",2101018
12986,Endakiso,17908,,7291,,LGA,Government,,,2013-01-24 00:17:15.461802+00,2013-01-24 00:17:15.461862+00,16,,f,-4.12529,35.53418,"",Operating,24,"","","",2101019
12987,Gallapo,17909,,7292,,LGA,Government,,,2013-01-24 00:17:15.509319+00,2013-01-24 00:17:15.509362+00,17,,f,-4.27447,35.85008,"",Operating,37,"","","",2101020
12988,Gedamar,17910,,7293,,LGA,Government,,,2013-01-24 00:17:15.556531+00,2013-01-24 00:17:15.556585+00,16,,f,,,"",Operating,52,"","","",2101022
12989,Gichameda,17911,,7294,,TAG,FBO,,,2013-01-24 00:17:15.593418+00,2013-01-24 00:17:15.593463+00,16,,f,-4.19373,35.42978,"",Closed,Not Allocated,"",AR/KIJ/254,"",2101023
12990,Gidas,17913,,7295,,LGA,Government,,,2013-01-24 00:17:15.64324+00,2013-01-24 00:17:15.643407+00,17,,f,-4.25257,35.40828,"",Operating,9,"",AR/KIJ/224,"",2101024
12991,Kiru,17915,,7297,,LGA,Government,,,2013-01-24 00:17:15.693519+00,2013-01-24 00:17:15.69362+00,16,,f,-4.7322,35.4084,"",Operating,26,"","","",2101028
12992,Kisangaji,17917,,7298,,LGA,Government,,,2013-01-24 00:17:15.739634+00,2013-01-24 00:17:15.739744+00,16,,f,,,"",Operating,59,Edited name from Kisngaji to Kisangaji,"","",2101029
12993,Luxmanda,17919,,7299,,Private,Private,,,2013-01-24 00:17:15.789751+00,2013-01-24 00:17:15.789789+00,16,,f,-4.15394,35.18626,"",Operating,56,Edited name from Lucmanda to Luxmanda,"","",2101030
12994,Madunga,17921,,7300,,LGA,Government,,,2013-01-24 00:17:15.8338+00,2013-01-24 00:17:15.833935+00,16,,f,-4.11283,35.28879,"",Operating,12,"",AR/KIJ/247,"",2101032
12995,Magara,17923,,7301,,LGA,Government,,,2013-01-24 00:17:15.869521+00,2013-01-24 00:17:15.869687+00,17,,f,-3.58396,35.41991,"",Operating,27,"","","",2101033
12996,Magugu,17925,,7303,,LGA,Government,,,2013-01-24 00:17:15.904188+00,2013-01-24 00:17:15.904242+00,17,,f,-4.49,35.4662,"",Operating,1,"",AR/KIJ/249,"",2101035
12997,Mamire,17926,,7305,,LGA,Government,,,2013-01-24 00:17:15.935818+00,2013-01-24 00:17:15.935862+00,17,,f,-3.59964,35.4648,"",Operating,30,"","","",2101037
12998,Maria Emakulata,17891,,7306,,RC,FBO,,,2013-01-24 00:17:15.957114+00,2013-01-24 00:17:15.957167+00,17,,f,-4.14484,35.34562,"",Operating,Not Allocated,"","","",2101040
12999,Mayoka,17927,,7307,,LGA,Government,,,2013-01-24 00:17:15.984504+00,2013-01-24 00:17:15.984552+00,16,,f,-3.4841,35.41993,"",Operating,42,"","","",2101042
13000,Merr,17928,,7308,,LGA,Government,,,2013-01-24 00:17:16.016831+00,2013-01-24 00:17:16.016875+00,16,,f,-4.6443,35.3483,"",Operating,44,"","","",2101043
13001,Minjingu,17930,,7309,,LGA,Government,,,2013-01-24 00:17:16.048815+00,2013-01-24 00:17:16.048863+00,16,,f,-4.42093,35.55706,"",Operating,29,"","","",2101044
13002,Mwikantsi,17931,,7310,,LGA,Government,,,2013-01-24 00:17:16.079217+00,2013-01-24 00:17:16.079265+00,16,,f,-4.9361,35.5048,"",Operating,57,"","","",2101048
13003,Nkaiti,17932,,7312,,LGA,Government,,,2013-01-24 00:17:16.108074+00,2013-01-24 00:17:16.108125+00,17,,f,-3.43864,35.56538,"",Operating,54,"","","",2101050
13004,Nkaiti,17933,,7311,,TAG,FBO,,,2013-01-24 00:17:16.136552+00,2013-01-24 00:17:16.136602+00,16,,f,-3.46969,35.51898,"",Operating,11,"","","",2101049
13005,Qameyu,17934,,7313,,LGA,Government,,,2013-01-24 00:17:16.16456+00,2013-01-24 00:17:16.164608+00,16,,f,-4.1134,35.28989,"",Operating,2,"",AR/KIJ/240,"",2101052
13006,Qash,17936,,7314,,LGA,Government,,,2013-01-24 00:17:16.204762+00,2013-01-24 00:17:16.20482+00,16,,f,-4.19378,35.52175,"",Operating,49,"","","",2101053
13007,Riroda,17937,,7316,,RC,FBO,,,2013-01-24 00:17:16.237181+00,2013-01-24 00:17:16.237237+00,17,,f,-4.18033,35.38924,"",Operating,31,"","","",2101055
13008,Sangaiwe,17938,,7317,,LGA,Government,,,2013-01-24 00:17:16.270692+00,2013-01-24 00:17:16.270741+00,16,,f,,,"",Operating,16,"","","",2101057
13009,Secheda,17939,,7318,,LGA,Government,,,2013-01-24 00:17:16.300821+00,2013-01-24 00:17:16.300875+00,16,,f,-4.15395,35.1879,"",Operating,20,"","","",2101058
13010,Sechet,17940,,7328,,LGA,Government,,,2013-01-24 00:17:16.329576+00,2013-01-24 00:17:16.329627+00,16,,f,,,"",Closed,17,"","","",2101069
13011,Shaurimoyo,17941,,7319,,LGA,Government,,,2013-01-24 00:17:16.356089+00,2013-01-24 00:17:16.356136+00,16,,f,,,"",Operating,60,New HF(already allocated with MSIMBO No.)awaiting for staff,"","",2101059
13012,Tarangire,17942,,7320,,Parastatal,Government,,,2013-01-24 00:17:16.38719+00,2013-01-24 00:17:16.387233+00,16,,f,-3.45145,35.58219,"",Operating,32,"","","",2101061
13013,Ufana,17943,,7322,,LGA,Government,,,2013-01-24 00:17:16.420419+00,2013-01-24 00:17:16.420473+00,17,,f,-4.24424,35.36236,"",Operating,18,"","","",2101063
13014,Wazazi Gallapo,17896,,7324,,Others,Private,,,2013-01-24 00:17:16.471286+00,2013-01-24 00:17:16.471344+00,16,,f,-4.1705,35.51236,"",Operating,51,"","","",2101065
13015,Wazazi Magugu,17925,,7325,,Others,Others,,,2013-01-24 00:17:16.507757+00,2013-01-24 00:17:16.5078+00,16,,f,,,"",Operating,41,"","","",2101066
13016,ZACI,17896,,7326,,TAG,FBO,,,2013-01-24 00:17:16.551396+00,2013-01-24 00:17:16.551451+00,16,,f,,,"",Operating,13,"","","",2101067
13017,Amani,17945,,7281,,Private,Private,,,2013-01-24 00:17:16.597919+00,2013-01-24 00:17:16.597952+00,19,,f,,,"",Operating,Not Allocated,"","","",2101001
13018,Bonga,17948,,7284,,LGA,Government,,,2013-01-24 00:17:16.643052+00,2013-01-24 00:17:16.643099+00,17,,f,-4.20957,35.44298,"",Operating,6021,"",AR/KIJ/249,"",2101011
13019,Kiongozi,17950,,7296,,LGA,Government,,,2013-01-24 00:17:16.68357+00,2013-01-24 00:17:16.683613+00,16,,f,-4.6559,35.4553,"",Operating,6010,"",AR/KIJ/212,"",2101027
13020,Magereza,17944,,7302,,Prisons,Government,,,2013-01-24 00:17:16.719261+00,2013-01-24 00:17:16.719305+00,16,,f,,,"",Operating,Not Allocated,"","","",2101034
13021,Malangi,17951,,7304,,LGA,Government,,,2013-01-24 00:17:16.755517+00,2013-01-24 00:17:16.75556+00,16,,f,,,"",Operating,Not Allocated,"",AR/KIJ/210,"",2101036
13022,Manyara,17953,,7329,,LGA,Government,,,2013-01-24 00:17:16.792239+00,2013-01-24 00:17:16.792297+00,18,,f,,,"",Under Construction,"","","",MoHSW,2101070
13023,Polisi,17955,,7330,,Police,Government,,,2013-01-24 00:17:16.834064+00,2013-01-24 00:17:16.834107+00,16,,f,,,"",Operating,"","","",MoHSW,2101072
13024,Rc Mission,17956,,7315,,RC,FBO,,,2013-01-24 00:17:16.869032+00,2013-01-24 00:17:16.869076+00,16,,f,,,"",Operating,6004,"","","",2101054
13025,Sabilo,17957,,7331,,Private,Private,,,2013-01-24 00:17:16.903732+00,2013-01-24 00:17:16.903789+00,16,,f,,,"",Operating,"","","",MoHSW,2101073
13026,Tumaini,17958,,7321,,Private,Private,,,2013-01-24 00:17:16.940753+00,2013-01-24 00:17:16.94082+00,16,,f,-4.13411,35.4494,"",Operating,6340,"","","",2101062
13027,Wazazi Babati,17959,,7323,,Private,Private,,,2013-01-24 00:17:16.975367+00,2013-01-24 00:17:16.975419+00,16,,f,-4.13055,35.44964,Wazazi,Operating,6079,"","","",2101064
13028,Bagamoyo,17964,,1914,,MoHSW/LGA,Government,,,2013-01-24 00:17:17.009711+00,2013-01-24 00:17:17.009761+00,18,,f,-6.4437,38.90192,"",Operating,61001,"","",Other,601001
13029,Bwawani Secondary,17967,,1915,,MoHSW/LGA,Government,,,2013-01-24 00:17:17.041799+00,2013-01-24 00:17:17.041849+00,16,,f,,,Secondary,Operating,61061,"","","",601002
13030,Chalinze,17969,,1916,,MoHSW/LGA,Government,,,2013-01-24 00:17:17.070658+00,2013-01-24 00:17:17.070706+00,17,,f,-6.60389,38.36061,"",Operating,61003,"","",Other,601003
13031,Chalinze RC,17961,,1917,,"","",,,2013-01-24 00:17:17.086394+00,2013-01-24 00:17:17.086448+00,16,,f,-6.63753,38.36575,"",Operating,61051,"","",Other,601004
13032,Chambezi,17961,,1918,,"","",,,2013-01-24 00:17:17.101402+00,2013-01-24 00:17:17.101454+00,16,,f,-6.51921,38.91742,"",Operating,61032,"","",Other,601005
13033,CM  Wambura,17970,,1919,,Others,Others,,,2013-01-24 00:17:17.125133+00,2013-01-24 00:17:17.125181+00,16,,f,,,Chacha Munanka Wambura,Operating,61068,"","","",601006
13034,Epiphany,17970,,1920,,RC,FBO,,,2013-01-24 00:17:17.147209+00,2013-01-24 00:17:17.147253+00,16,,f,,,"",Operating,61067,"","","",601007
13035,Fukayosi,17973,,1921,,MoHSW/LGA,Government,,,2013-01-24 00:17:17.187429+00,2013-01-24 00:17:17.187477+00,16,,f,-6.387,38.67761,"",Operating,61010,"","",Other,601008
13036,Hondogo,17976,,1922,,MoHSW/LGA,Government,,,2013-01-24 00:17:17.2186+00,2013-01-24 00:17:17.218649+00,16,,f,-6.16058,38.4059,"",Operating,61023,"","",Other,601009
13037,Huruma,17963,,1923,,Others,Others,,,2013-01-24 00:17:17.243083+00,2013-01-24 00:17:17.243138+00,16,,f,-6.4503,38.89892,"",Operating,61034,"","",Other,601010
13038,Kaole,17977,,1924,,MoHSW/LGA,Government,,,2013-01-24 00:17:17.27135+00,2013-01-24 00:17:17.271399+00,16,,f,-6.64194,39.01639,"",Operating,61050,"","",Other,601012
13039,Kerege,17980,,1925,,MoHSW/LGA,Government,,,2013-01-24 00:17:17.314541+00,2013-01-24 00:17:17.314592+00,16,,f,-6.54991,38.99339,"",Operating,61007,"","",Other,601013
13040,Kibindu,17983,,1926,,MoHSW/LGA,Government,,,2013-01-24 00:17:17.344902+00,2013-01-24 00:17:17.34495+00,16,,f,-5.93619,37.88379,"",Operating,61018,"","",Other,601014
13041,Kidogozero,17985,,1927,,MoHSW/LGA,Government,,,2013-01-24 00:17:17.375261+00,2013-01-24 00:17:17.375309+00,16,,f,-6.68833,38.79556,"",Operating,61008,"","",Other,601015
13042,Kidomole,17986,,1980,,MoHSW/LGA,Government,,,2013-01-24 00:17:17.403581+00,2013-01-24 00:17:17.40363+00,16,,f,,,"",Operating,"","","",MoHSW,601070
13043,Kifuleta,17988,,1928,,Private,Private,,,2013-01-24 00:17:17.432937+00,2013-01-24 00:17:17.432985+00,16,,f,-6.06824,38.14187,"",Operating,61039,"","",Other,601016
13044,Kigongoni,17970,,1929,,Prisons,Government,,,2013-01-24 00:17:17.467148+00,2013-01-24 00:17:17.467202+00,16,,f,-6.46261,38.86609,"",Operating,61027,"","",Other,601017
13045,Kikaro,17961,,1981,,"","",,,2013-01-24 00:17:17.48326+00,2013-01-24 00:17:17.483319+00,16,,f,-6.11206443709,38.4118855765,"",Operating,"","","",NBS,601071
13046,Kimange,17989,,1930,,Private,Private,,,2013-01-24 00:17:17.510467+00,2013-01-24 00:17:17.510515+00,16,,f,,,"",Operating,61063,"","",MMAM,601018
13047,Kiromo,17991,,1931,,MoHSW/LGA,Government,,,2013-01-24 00:17:17.541727+00,2013-01-24 00:17:17.541779+00,16,,f,-6.50868,38.92927,"",Operating,61035,"","",Other,601019
13048,Kitonga,17961,,1982,,"","",,,2013-01-24 00:17:17.558404+00,2013-01-24 00:17:17.558456+00,16,,f,-6.58423408204,39.0443435678,"",Operating,"","","",NBS,601072
13049,Kiwangwa,17993,,1932,,MoHSW/LGA,Government,,,2013-01-24 00:17:17.587846+00,2013-01-24 00:17:17.587894+00,16,,f,-6.36727,38.58025,"",Operating,61011,"","",Other,601020
13050,Kongo,17995,,1933,,MoHSW/LGA,Government,,,2013-01-24 00:17:17.617073+00,2013-01-24 00:17:17.61712+00,16,,f,-6.74222,39.00861,"",Operating,61041,"","",Other,601021
13051,Kwakilumbi,17961,,1983,,"","",,,2013-01-24 00:17:17.631933+00,2013-01-24 00:17:17.631985+00,16,,f,-6.01627028475,38.0735956536,"",Operating,"","","",NBS,601073
13052,Kwamduma,17996,,1934,,MoHSW/LGA,Government,,,2013-01-24 00:17:17.659017+00,2013-01-24 00:17:17.659064+00,16,,f,-5.92701,38.0031,"",Operating,61019,"","",Other,601022
13053,Kwamsanja,17997,,1935,,Private,Private,,,2013-01-24 00:17:17.685523+00,2013-01-24 00:17:17.685571+00,16,,f,,,"",Operating,61062,"","",MMAM,601023
13054,Kwangwandu,17999,,1936,,MoHSW/LGA,Government,,,2013-01-24 00:17:17.717493+00,2013-01-24 00:17:17.717547+00,16,,f,-5.95939,38.22475,"",Operating,61046,"","",Other,601024
13055,Kwaruhombo,18000,,1937,,MoHSW/LGA,Government,,,2013-01-24 00:17:17.744804+00,2013-01-24 00:17:17.744848+00,17,,f,-6.12444,38.14667,"",Operating,61002,"","",Other,601025
13056,Kweikonje,18002,,1938,,MoHSW/LGA,Government,,,2013-01-24 00:17:17.773007+00,2013-01-24 00:17:17.773057+00,16,,f,,,"",Operating,61045,"","",MMAM,601026
13057,Lower Ruvu,17961,,1939,,"","",,,2013-01-24 00:17:17.789409+00,2013-01-24 00:17:17.789462+00,16,,f,-6.54665587449,38.8272162093,"",Operating,61059,"","",NBS,601027
13058,Lugoba,18004,,1940,,MoHSW/LGA,Government,,,2013-01-24 00:17:17.818442+00,2013-01-24 00:17:17.818491+00,17,,f,-6.66889,38.54972,"",Operating,61004,"","",Other,601028
13059,Lugoba Secondary,17961,,1941,,"","",,,2013-01-24 00:17:17.835236+00,2013-01-24 00:17:17.835291+00,16,,f,,,"",Operating,61060,"","","",601029
13060,Lugoba VA,18003,,1942,,RC,FBO,,,2013-01-24 00:17:17.858498+00,2013-01-24 00:17:17.858654+00,16,,f,-6.44897,38.36538,"",Operating,61028,"","",Other,601030
13061,Lupungwi,17961,,1984,,"","",,,2013-01-24 00:17:17.879447+00,2013-01-24 00:17:17.8795+00,16,,f,,,"",Operating,"","","","",601074
13062,Magereza Bwawani,17961,,1943,,"","",,,2013-01-24 00:17:17.896503+00,2013-01-24 00:17:17.896558+00,16,,f,-6.91,38.2,"",Operating,Not Allocated,"","",Other,601031
13063,Makurunge,18005,,1944,,MoHSW/LGA,Government,,,2013-01-24 00:17:17.925409+00,2013-01-24 00:17:17.925457+00,16,,f,-6.56389,39.06806,"",Operating,61049,"","",Other,601032
13064,Mandamazingara,18007,,1945,,MoHSW/LGA,Government,,,2013-01-24 00:17:17.952055+00,2013-01-24 00:17:17.952105+00,16,,f,-6.04667120833,38.5215036977,"",Operating,61048,"","",NBS,601033
13065,Mandela,17961,,1946,,"","",,,2013-01-24 00:17:17.966493+00,2013-01-24 00:17:17.966547+00,16,,f,-6.22578,38.40452,"",Operating,61026,"","",Other,601034
13066,Mandera,18008,,1985,,RC,FBO,,,2013-01-24 00:17:17.992752+00,2013-01-24 00:17:17.992802+00,16,,f,,,"",Operating,"","","",MoHSW,601075
13067,Mapinga,18009,,1947,,MoHSW/LGA,Government,,,2013-01-24 00:17:18.020979+00,2013-01-24 00:17:18.021028+00,16,,f,-6.58670205134,39.0598758674,"",Operating,61040,"","",NBS,601035
13068,Masimbani,18010,,1986,,Private,Private,,,2013-01-24 00:17:18.050184+00,2013-01-24 00:17:18.050233+00,16,,f,,,"",Operating,"","","",MMAM,601076
13069,Masuguru,18011,,1948,,MoHSW/LGA,Government,,,2013-01-24 00:17:18.078314+00,2013-01-24 00:17:18.078358+00,16,,f,-6.47028,38.56278,"",Operating,61044,"","",Other,601036
13070,Mataya,18012,,1949,,MoHSW/LGA,Government,,,2013-01-24 00:17:18.110426+00,2013-01-24 00:17:18.110477+00,16,,f,-6.52165,38.89504,"",Operating,61031,"","",Other,601037
13071,Matipwili,18013,,1950,,MoHSW/LGA,Government,,,2013-01-24 00:17:18.138234+00,2013-01-24 00:17:18.138281+00,16,,f,-6.2154,38.82538,"",Operating,61022,"","",Other,601038
13072,Matuli,18014,,1951,,MoHSW/LGA,Government,,,2013-01-24 00:17:18.165475+00,2013-01-24 00:17:18.165524+00,16,,f,-6.66109,38.24383,"",Operating,61009,"","",Other,601039
13073,Mbegani,18015,,1952,,MoHSW/LGA,Government,,,2013-01-24 00:17:18.194134+00,2013-01-24 00:17:18.194185+00,16,,f,,,"",Operating,61029,"","","",601040
13074,Mboga,18016,,1987,,Private,Private,,,2013-01-24 00:17:18.221419+00,2013-01-24 00:17:18.221468+00,16,,f,,,"",Operating,"","","",MoHSW,601077
13075,Mbwewe,18017,,1953,,MoHSW/LGA,Government,,,2013-01-24 00:17:18.248419+00,2013-01-24 00:17:18.248467+00,16,,f,-6.07956,38.25547,"",Operating,61017,"","",Other,601041
13076,MICO,17968,,1988,,Private,Private,,,2013-01-24 00:17:18.2695+00,2013-01-24 00:17:18.269554+00,16,,f,-6.43689,38.30393,"",Operating,"","","",Other,601078
13077,MICO Kudikula,17961,,1989,,"","",,,2013-01-24 00:17:18.283621+00,2013-01-24 00:17:18.283673+00,16,,f,-6.63149618456,38.2441822075,"",Operating,"","","",NBS,601079
13078,Mihuga,18018,,1954,,Private,Private,,,2013-01-24 00:17:18.310466+00,2013-01-24 00:17:18.310515+00,16,,f,-6.18105109821,38.4943045687,"",Operating,61047,"","",NBS,601042
13079,Milo,17961,,1955,,"","",,,2013-01-24 00:17:18.326007+00,2013-01-24 00:17:18.32606+00,16,,f,,,"",Operating,61064,"","","",601043
13080,Miono,18019,,1956,,MoHSW/LGA,Government,,,2013-01-24 00:17:18.354693+00,2013-01-24 00:17:18.354741+00,17,,f,-6.11655,38.40895,"",Operating,61005,"","",Other,601044
13081,Mkange,18020,,1957,,MoHSW/LGA,Government,,,2013-01-24 00:17:18.381464+00,2013-01-24 00:17:18.381512+00,16,,f,-6.07954,38.55367,"",Operating,61020,"","",Other,601045
13082,Mkenge,18021,,1958,,MoHSW/LGA,Government,,,2013-01-24 00:17:18.413195+00,2013-01-24 00:17:18.41324+00,16,,f,-6.46200249699,38.579185512,"",Operating,61058,"","",NBS,601046
13083,Mkoko,18023,,1990,,Private,Private,,,2013-01-24 00:17:18.447477+00,2013-01-24 00:17:18.447525+00,16,,f,,,"",Operating,"","","",MoHSW,601080
13084,Mlingotini,18024,,1959,,MoHSW/LGA,Government,,,2013-01-24 00:17:18.477455+00,2013-01-24 00:17:18.477493+00,16,,f,-6.47948,39.00166,"",Operating,61025,"","",Other,601047
13085,Msata,18025,,1960,,MoHSW/LGA,Government,,,2013-01-24 00:17:18.505178+00,2013-01-24 00:17:18.505226+00,16,,f,-6.5347,38.18791,"",Operating,61021,"","",Other,601048
13086,Msinune,18026,,1961,,MoHSW/LGA,Government,,,2013-01-24 00:17:18.532239+00,2013-01-24 00:17:18.532288+00,16,,f,,,"",Operating,61066,"","",MMAM,601049
13087,Msoga,18027,,1962,,MoHSW/LGA,Government,,,2013-01-24 00:17:18.566004+00,2013-01-24 00:17:18.566042+00,16,,f,-6.5668,38.30107,"",Operating,61013,"","",Other,601050
13088,Msorwa,17961,,1991,,"","",,,2013-01-24 00:17:18.58409+00,2013-01-24 00:17:18.584144+00,16,,f,-7.17101718657,39.2983765727,"",Operating,"","","",NBS,601081
13089,Muhunda,18030,,1963,,Private,Private,,,2013-01-24 00:17:18.615567+00,2013-01-24 00:17:18.615609+00,16,,f,-6.63515,38.23639,Mdaula,Operating,61036,"","",Other,601051
13090,NARCO,17961,,1964,,"","",,,2013-01-24 00:17:18.631482+00,2013-01-24 00:17:18.631537+00,16,,f,-6.67409,38.64989,"",Operating,61053,"","",Other,601052
13091,Neema(Kironi),17961,,1992,,"","",,,2013-01-24 00:17:18.648174+00,2013-01-24 00:17:18.648227+00,16,,f,,,"",Operating,"","","","",601082
13092,Pongwe Kiona,18031,,1965,,MoHSW/LGA,Government,,,2013-01-24 00:17:18.676747+00,2013-01-24 00:17:18.676801+00,16,,f,-6.39472,38.37861,"",Operating,61016,"","",Other,601053
13093,Pongwemsungura,18032,,1993,,MoHSW/LGA,Government,,,2013-01-24 00:17:18.706844+00,2013-01-24 00:17:18.706894+00,16,,f,,,"",Operating,"","","",MoHSW,601083
13094,Reco,17968,,1966,,Private,Private,,,2013-01-24 00:17:18.737458+00,2013-01-24 00:17:18.73751+00,16,,f,,,"",Operating,61057,"","","",601054
13095,Rupungwi,18033,,1967,,MoHSW/LGA,Government,,,2013-01-24 00:17:18.765469+00,2013-01-24 00:17:18.765518+00,16,,f,-6.18086,38.31471,"",Operating,61033,"","",Other,601055
13096,Saadani,18034,,1968,,MoHSW/LGA,Government,,,2013-01-24 00:17:18.793459+00,2013-01-24 00:17:18.793508+00,16,,f,-6.18861,38.94417,"",Operating,61021,"","",Other,601056
13097,Seko,17961,,1969,,"","",,,2013-01-24 00:17:18.807628+00,2013-01-24 00:17:18.807681+00,16,,f,-6.64955133531,38.7047638457,"",Operating,Not Allocated,"","",NBS,601057
13098,St. Elizabeth,18035,,1970,,RC,FBO,,,2013-01-24 00:17:18.837861+00,2013-01-24 00:17:18.837906+00,17,,f,-6.42275,38.88973,Mantep,Operating,61030,"","",Other,601058
13099,Talawanda,18037,,1971,,MoHSW/LGA,Government,,,2013-01-24 00:17:18.866249+00,2013-01-24 00:17:18.866306+00,16,,f,-6.49187,38.48693,"",Operating,61014,"","",Other,601059
13100,Tayma,18003,,1972,,Others,Others,,,2013-01-24 00:17:18.888619+00,2013-01-24 00:17:18.888672+00,16,,f,-6.45887461299,38.3281354216,"",Operating,61055,"","",NBS,601060
13101,Tukamisasa,18038,,1973,,Private,Private,,,2013-01-24 00:17:18.915911+00,2013-01-24 00:17:18.915959+00,16,,f,-6.67195829185,38.2224351348,"",Operating,61056,"","",NBS,601061
13102,Ubena Estate,18039,,1974,,Parastatal,Government,,,2013-01-24 00:17:18.943456+00,2013-01-24 00:17:18.943504+00,16,,f,-6.62276,38.19623,"",Operating,61015,"","",Other,601062
13103,Ubena Prison,18040,,1975,,Prisons,Government,,,2013-01-24 00:17:18.970685+00,2013-01-24 00:17:18.970742+00,16,,f,-6.63529,38.16688,"",Operating,61038,"","",Other,601063
13104,Upendo,17961,,1994,,"","",,,2013-01-24 00:17:18.98713+00,2013-01-24 00:17:18.987183+00,16,,f,-6.64441,38.37491,"",Operating,"","","",NIMR,601084
13105,Vigwaza,18041,,1976,,MoHSW/LGA,Government,,,2013-01-24 00:17:19.014709+00,2013-01-24 00:17:19.014757+00,16,,f,,,"",Operating,61042,"","","",601065
13106,Visakazi,17961,,1995,,"","",,,2013-01-24 00:17:19.029868+00,2013-01-24 00:17:19.029922+00,16,,f,-6.63968994394,38.0490828791,"",Operating,"","","",NBS,601085
13107,Visezi,18042,,1977,,MoHSW/LGA,Government,,,2013-01-24 00:17:19.058644+00,2013-01-24 00:17:19.058691+00,16,,f,-6.74142559618,38.6301831518,"",Operating,61065,"","",NBS,601066
13108,Yombo,18043,,1978,,MoHSW/LGA,Government,,,2013-01-24 00:17:19.086663+00,2013-01-24 00:17:19.086709+00,16,,f,-6.5861,38.84913,"",Operating,61024,"","",Other,601067
13109,Zinga,18044,,1979,,MoHSW/LGA,Government,,,2013-01-24 00:17:19.11469+00,2013-01-24 00:17:19.114737+00,16,,f,-6.52711,38.97599,"",Operating,61006,"","",Other,601068
13110,Asanje,18049,,357,,MOHSW,Government,,,2013-01-24 00:17:19.147276+00,2013-01-24 00:17:19.147324+00,16,,f,,,"",Operating,1,Formely in Chamwino District,DO/DV/KIJ/517,"",106001
13111,Babayu,18050,,358,,MOHSW,Government,,,2013-01-24 00:17:19.175837+00,2013-01-24 00:17:19.175886+00,16,,f,-5.63868,35.70325,"",Operating,2,"",DO/DV/KIJ/518,NIMR,106002
13112,Bahi,18053,,359,,MOHSW,Government,,,2013-01-24 00:17:19.205682+00,2013-01-24 00:17:19.205731+00,17,,f,-5.96245,35.31205,"",Operating,4,Upgraded to Bahi Health Centre,DO/DV/KIJ/323,"",106003
13113,Bahi Makulu,18055,,391,,MOHSW,Government,,,2013-01-24 00:17:19.235285+00,2013-01-24 00:17:19.235333+00,16,,f,,,"",Operating,"","",DO/DV/KIJ/4452,"",106041
13114,Bahi RC,18056,,360,,RC,FBO,,,2013-01-24 00:17:19.264983+00,2013-01-24 00:17:19.265031+00,16,,f,-5.7452,35.31204,"",Operating,3,"",DO/DV/KIJ/325,"",106005
13115,Bankolo,18058,,361,,MOHSW,Government,,,2013-01-24 00:17:19.29337+00,2013-01-24 00:17:19.293416+00,16,,f,,,"",Operating,5,"",DO/DV/KIJ/85,NIMR,106006
13116,Chali,18061,,392,,MOHSW,Government,,,2013-01-24 00:17:19.326471+00,2013-01-24 00:17:19.32652+00,16,,f,,,"",Operating,"","",DO/DV/KIJ/43,"",106042
13117,Chali Isangha,18046,,362,,LGA,Government,,,2013-01-24 00:17:19.342267+00,2013-01-24 00:17:19.342319+00,16,,f,-6.25088,35.23451,"",Operating,6,"","","",106007
13118,Chali Makulu,18062,,393,,MOHSW,Government,,,2013-01-24 00:17:19.371793+00,2013-01-24 00:17:19.371841+00,16,,f,,,"",Under Construction,"","",DO/DV/KIJ/42,"",106043
13119,Chibelela,18065,,363,,MOHSW,Government,,,2013-01-24 00:17:19.403686+00,2013-01-24 00:17:19.403734+00,16,,f,-6.40101,35.70697,"",Operating,8,"",DO/DV/KIJ/70,Other,106009
13120,Chifukuta,18067,,364,,MOHSW,Government,,,2013-01-24 00:17:19.433616+00,2013-01-24 00:17:19.433665+00,16,,f,-6.60372,35.33445,"",Operating,7,"",DO/DV/KIJ/35,NIMR,106010
13121,Chiguluka,18069,,365,,MOHSW,Government,,,2013-01-24 00:17:19.465749+00,2013-01-24 00:17:19.465806+00,16,,f,,,"",Operating,10,From Chamwino District,DO/DV/KIJ/50,MMAM,106011
13122,Chikola,18070,,366,,MOHSW,Government,,,2013-01-24 00:17:19.499525+00,2013-01-24 00:17:19.499582+00,16,,f,-6.17915,35.41853,"",Operating,13,"",DO/DV/KIJ/36,NIMR,106012
13123,Chikopelo,18071,,367,,RC,FBO,,,2013-01-24 00:17:19.549913+00,2013-01-24 00:17:19.549989+00,16,,f,-5.30986,35.30585,"",Operating,9,"",DO/DV/KIJ/49,NIMR,106013
13124,Chimendeli,18072,,368,,MOHSW,Government,,,2013-01-24 00:17:19.593164+00,2013-01-24 00:17:19.59322+00,16,,f,-6.11575,35.39453,"",Operating,12,"",DO/DV/KIJ/48,NIMR,106014
13125,Chipanga,18074,,369,,MOHSW,Government,,,2013-01-24 00:17:19.628786+00,2013-01-24 00:17:19.628831+00,17,,f,-6.25232,35.35828,"",Operating,11,"",DO/DV/KIJ/36,NIMR,106015
13126,Ibihwa,18076,,370,,MOHSW,Government,,,2013-01-24 00:17:19.692485+00,2013-01-24 00:17:19.69254+00,16,,f,-6.563,35.43287,"",Operating,16,"",DO/DV/KIJ/443,NIMR,106016
13127,Ibugule,18078,,394,,MOHSW,Government,,,2013-01-24 00:17:19.728026+00,2013-01-24 00:17:19.728075+00,16,,f,,,"",Operating,"","",DO/DV/KIJ/330,"",106044
13128,Ilindi,18080,,371,,MOHSW,Government,,,2013-01-24 00:17:19.764888+00,2013-01-24 00:17:19.764938+00,16,,f,-5.94829,35.54272,"",Operating,14,"",DO/DV/KIJ/445,NIMR,106018
13129,Isangha,18081,,372,,MOHSW,Government,,,2013-01-24 00:17:19.793999+00,2013-01-24 00:17:19.794049+00,16,,f,-6.37873,35.66608,"",Operating,15,"",DO/DV/KIJ/73,NIMR,106019
13130,Kigwe,18083,,373,,MOHSW,Government,,,2013-01-24 00:17:19.826566+00,2013-01-24 00:17:19.826617+00,17,,f,-6.9532,35.49219,"",Operating,17,"",DO/DV/KIJ/447,NIMR,106020
13131,Kongogo,18084,,374,,MOHSW,Government,,,2013-01-24 00:17:19.860502+00,2013-01-24 00:17:19.860543+00,16,,f,-5.65143,35.6087,"",Operating,18,"",DO/DV/KIJ/519,NIMR,106021
13132,Lamaiti,18085,,375,,MOHSW,Government,,,2013-01-24 00:17:19.888134+00,2013-01-24 00:17:19.888173+00,16,,f,-5.7832,35.62008,"",Operating,19,"",DO/DV/KIJ/78,NIMR,106022
13133,Lukali,18086,,376,,MOHSW,Government,,,2013-01-24 00:17:19.91788+00,2013-01-24 00:17:19.91793+00,16,,f,-5.92471,35.41793,"",Operating,20,"",DO/DV/KIJ/556,NIMR,106023
13134,Magaga,18087,,377,,MOHSW,Government,,,2013-01-24 00:17:19.947567+00,2013-01-24 00:17:19.947616+00,16,,f,,,"",Operating,32,"",DO/DV/KIJ/35,MMAM,106024
13135,Makanda,18089,,378,,MOHSW,Government,,,2013-01-24 00:17:19.981738+00,2013-01-24 00:17:19.981781+00,16,,f,-6.62959,35.68319,"",Operating,22,"",DO/DV/KIJ/86,NIMR,106025
13136,Mindola,18090,,395,,MOHSW,Government,,,2013-01-24 00:17:20.013002+00,2013-01-24 00:17:20.013054+00,16,,f,,,"",Under Construction,"","",DO/DV/KIJ/446,"",106045
13137,Mkondai,18092,,379,,MOHSW,Government,,,2013-01-24 00:17:20.04491+00,2013-01-24 00:17:20.044962+00,16,,f,-5.791,35.92458,"",Operating,21,"",DO/DV/KIJ/371,NIMR,106026
13138,Mnkola,18093,,380,,MOHSW,Government,,,2013-01-24 00:17:20.074226+00,2013-01-24 00:17:20.074266+00,16,,f,-5.90769,35.4416,"",Operating,25,"",DO/DV/KIJ/444,NIMR,106027
13139,Mpalanga,18095,,381,,MOHSW,Government,,,2013-01-24 00:17:20.10297+00,2013-01-24 00:17:20.103009+00,16,,f,-5.32703,35.49758,"",Operating,28,"",DO/DV/KIJ/455,NIMR,106028
13140,Mpamatwa,18096,,382,,MOHSW,Government,,,2013-01-24 00:17:20.1313+00,2013-01-24 00:17:20.131349+00,16,,f,-5.97026,35.38513,"",Operating,26,"",DO/DV/KIJ/450,NIMR,106029
13141,Mpangwe,18046,,383,,LGA,Government,,,2013-01-24 00:17:20.146069+00,2013-01-24 00:17:20.146127+00,16,,f,-6.62959,35.68319,"",Operating,31,"","",NIMR,106030
13142,Mphangwe,18098,,396,,MOHSW,Government,,,2013-01-24 00:17:20.181035+00,2013-01-24 00:17:20.181078+00,16,,f,,,"",Operating,"","",DO/DV/KIJ/64,"",106046
13143,Mpinga,18099,,397,,MOHSW,Government,,,2013-01-24 00:17:20.208793+00,2013-01-24 00:17:20.208833+00,16,,f,,,"",Under Construction,"","",DO/DV/KIJ/448,"",106047
13144,Msisi,18101,,384,,MOHSW,Government,,,2013-01-24 00:17:20.236033+00,2013-01-24 00:17:20.236072+00,16,,f,-6.49348,35.62192,"",Operating,23,"",DO/DV/KIJ/458,NIMR,106032
13145,Mtitaa,18103,,385,,MOHSW,Government,,,2013-01-24 00:17:20.265725+00,2013-01-24 00:17:20.26576+00,17,,f,-6.43773,35.59497,"",Operating,29,"",DO/DV/KIJ/65,NIMR,106033
13146,Mundemu,18105,,386,,MOHSW,Government,,,2013-01-24 00:17:20.295376+00,2013-01-24 00:17:20.295432+00,17,,f,-5.49173,35.68792,"",Operating,24,"",DO/DV/KIJ/77,NIMR,106034
13147,Mzogole,18106,,387,,MOHSW,Government,,,2013-01-24 00:17:20.325133+00,2013-01-24 00:17:20.325183+00,16,,f,-5.20482,35.53279,"",Operating,27,"",DO/DV/KIJ/449,NIMR,106036
13148,Nghulugano,18107,,398,,MOHSW,Government,,,2013-01-24 00:17:20.361707+00,2013-01-24 00:17:20.361755+00,16,,f,,,"",Operating,"","",DO/DV/KIJ/79,"",106048
13149,Nkhome,18108,,388,,MOHSW,Government,,,2013-01-24 00:17:20.390944+00,2013-01-24 00:17:20.390992+00,16,,f,-6.97026,35.38513,"",Operating,33,"",DO/DV/KIJ/72,NIMR,106038
13150,Nondwa,18110,,389,,MOHSW,Government,,,2013-01-24 00:17:20.419295+00,2013-01-24 00:17:20.419342+00,16,,f,-6.42714,35.3335,"",Operating,34,"",DO/DV/KIJ/32,NIMR,106039
13151,Zanka,18111,,390,,MOHSW,Government,,,2013-01-24 00:17:20.447667+00,2013-01-24 00:17:20.44771+00,16,,f,-5.84439,35.76256,"",Operating,35,"",DO/DV/KIJ/462,NIMR,106040
13152,Zejele,18112,,399,,MOHSW,Government,,,2013-01-24 00:17:20.474906+00,2013-01-24 00:17:20.474949+00,16,,f,,,"",Under Construction,"","",DO/DV/KIJ/33,"",106049
13153,Banemhi,18117,,5692,,MoHSW/LGA,Government,,,2013-01-24 00:17:20.50929+00,2013-01-24 00:17:20.509329+00,16,,f,,,"",Operating,1,"","","",1701001
13154,Bariadi,18120,,5693,,MoHSW/LGA,Government,,,2013-01-24 00:17:20.551879+00,2013-01-24 00:17:20.551923+00,18,,f,,,Somanda,Operating,"","","",MoHSW,1701002
13155,Bibyai,18122,,5757,,MoHSW/LGA,Government,,,2013-01-24 00:17:20.580023+00,2013-01-24 00:17:20.580062+00,16,,f,,,"",Under Construction,"","","",MoHSW,1701068
13156,Bumera,18125,,5694,,MoHSW/LGA,Government,,,2013-01-24 00:17:20.612311+00,2013-01-24 00:17:20.612363+00,16,,f,,,"",Operating,2,"","","",1701003
13157,Bunamhala Chuoni,18127,,5695,,MoHSW/LGA,Government,,,2013-01-24 00:17:20.641879+00,2013-01-24 00:17:20.641917+00,16,,f,,,"",Operating,3,"","","",1701004
13158,Bunamhala Mbugani,18130,,5696,,MoHSW/LGA,Government,,,2013-01-24 00:17:20.676905+00,2013-01-24 00:17:20.676945+00,16,,f,,,"",Operating,4,"","","",1701005
13159,Bupandagila - SDA,18132,,5697,,SDA,FBO,,,2013-01-24 00:17:20.706501+00,2013-01-24 00:17:20.706541+00,16,,f,,,"",Operating,5,"","","",1701006
13160,Byuna,18135,,5698,,MoHSW/LGA,Government,,,2013-01-24 00:17:20.735439+00,2013-01-24 00:17:20.735483+00,17,,f,,,"",Operating,6,"","","",1701007
13161,Chinamili,18138,,5699,,MoHSW/LGA,Government,,,2013-01-24 00:17:20.7678+00,2013-01-24 00:17:20.767839+00,16,,f,,,"",Operating,7,"","","",1701008
13162,Ditima,18140,,5758,,MoHSW/LGA,Government,,,2013-01-24 00:17:20.794396+00,2013-01-24 00:17:20.794435+00,16,,f,,,"",Operating,"","","",MoHSW,1701069
13163,Dr Maduhu,18142,,5759,,Private,Private,,,2013-01-24 00:17:20.823517+00,2013-01-24 00:17:20.82357+00,16,,f,,,"",Complete,"","","",MoHSW,1701070
13164,Dr.Mwijage,18144,,5700,,Private,Private,,,2013-01-24 00:17:20.857111+00,2013-01-24 00:17:20.857153+00,16,,f,,,"",Operating,Not Allocated,"","",MoHSW,1701009
13165,Dutwa,18146,,5701,,MoHSW/LGA,Government,,,2013-01-24 00:17:20.886747+00,2013-01-24 00:17:20.886796+00,16,,f,,,"",Operating,8,"","","",1701010
13166,Dutwa - AICT,18146,,5702,,AICT,FBO,,,2013-01-24 00:17:20.913999+00,2013-01-24 00:17:20.914048+00,16,,f,,,"",Operating,9,"","","",1701011
13167,Gambosi,18149,,5703,,MoHSW/LGA,Government,,,2013-01-24 00:17:20.941392+00,2013-01-24 00:17:20.94143+00,16,,f,,,"",Operating,10,"","","",1701012
13168,Gasuma,18151,,5704,,MoHSW/LGA,Government,,,2013-01-24 00:17:20.968389+00,2013-01-24 00:17:20.968427+00,16,,f,,,"",Operating,47,"","","",1701013
13169,Gaswa,18153,,5705,,MoHSW/LGA,Government,,,2013-01-24 00:17:20.999846+00,2013-01-24 00:17:20.999887+00,16,,f,,,"",Operating,46,"","","",1701014
13170,Gibeshi,18154,,5706,,MoHSW/LGA,Government,,,2013-01-24 00:17:21.032909+00,2013-01-24 00:17:21.032958+00,16,,f,,,"",Operating,43,"","","",1701015
13171,Guduwi,18155,,5707,,MoHSW/LGA,Government,,,2013-01-24 00:17:21.060749+00,2013-01-24 00:17:21.060802+00,16,,f,,,"",Operating,10,"","","",1701016
13172,Habiya,18156,,5773,,MoHSW/LGA,Government,,,2013-01-24 00:17:21.090966+00,2013-01-24 00:17:21.091009+00,16,,f,,,"",Under Construction,"","","","",1701084
13173,Halawa,18158,,5708,,MoHSW/LGA,Government,,,2013-01-24 00:17:21.122152+00,2013-01-24 00:17:21.122192+00,16,,f,,,"",Operating,12,"","","",1701017
13174,Igegu,18160,,5709,,MoHSW/LGA,Government,,,2013-01-24 00:17:21.154988+00,2013-01-24 00:17:21.155033+00,16,,f,,,"",Operating,51,"","","",1701018
13175,Ihusi,18162,,5760,,MoHSW/LGA,Government,,,2013-01-24 00:17:21.186452+00,2013-01-24 00:17:21.186582+00,16,,f,,,"",Under Construction,"","","",MoHSW,1701071
13176,Ikindilo,18164,,5710,,MoHSW/LGA,Government,,,2013-01-24 00:17:21.216815+00,2013-01-24 00:17:21.216856+00,17,,f,,,"",Operating,13,"","","",1701019
13177,Ikungulyabashashi,18166,,5711,,MoHSW/LGA,Government,,,2013-01-24 00:17:21.244047+00,2013-01-24 00:17:21.244087+00,16,,f,,,"",Operating,14,"","","",1701020
13178,Ikungulyambeshi,18168,,5712,,MoHSW/LGA,Government,,,2013-01-24 00:17:21.273689+00,2013-01-24 00:17:21.273727+00,16,,f,,,"",Operating,15,"","","",1701021
13179,Imalilo,18169,,5774,,MoHSW/LGA,Government,,,2013-01-24 00:17:21.306403+00,2013-01-24 00:17:21.306454+00,16,,f,,,"",Under Construction,"","","","",1701085
13180,Isanga,18171,,5761,,MoHSW/LGA,Government,,,2013-01-24 00:17:21.339777+00,2013-01-24 00:17:21.339817+00,16,,f,,,"",Under Construction,"","","",MoHSW,1701072
13181,Kashishi,18174,,5775,,MoHSW/LGA,Government,,,2013-01-24 00:17:21.371751+00,2013-01-24 00:17:21.37179+00,16,,f,,,"",Under Construction,"","","","",1701086
13182,Kasoli,18175,,5713,,MoHSW/LGA,Government,,,2013-01-24 00:17:21.401523+00,2013-01-24 00:17:21.401564+00,16,,f,,,"",Operating,"","","","",1701022
13183,Kilulu RC,18176,,5714,,RC,FBO,,,2013-01-24 00:17:21.615278+00,2013-01-24 00:17:21.615321+00,16,,f,,,"",Operating,16,"","","",1701023
13184,Kinamweli,18178,,5715,,MoHSW/LGA,Government,,,2013-01-24 00:17:21.780088+00,2013-01-24 00:17:21.780136+00,16,,f,,,"",Operating,50,"","","",1701024
13185,Lagangabilili,18180,,5716,,MoHSW/LGA,Government,,,2013-01-24 00:17:22.041933+00,2013-01-24 00:17:22.042021+00,16,,f,,,"",Operating,17,"","","",1701025
13186,Longalambogo,18182,,5717,,MoHSW/LGA,Government,,,2013-01-24 00:17:22.272453+00,2013-01-24 00:17:22.272537+00,16,,f,,,"",Operating,48,"","","",1701026
13187,Luguru,18184,,5718,,MoHSW/LGA,Government,,,2013-01-24 00:17:22.511572+00,2013-01-24 00:17:22.51162+00,16,,f,,,"",Operating,18,"","","",1701027
13188,Luguru UWT,18184,,5719,,Private,Private,,,2013-01-24 00:17:22.768245+00,2013-01-24 00:17:22.768299+00,16,,f,,,"",Operating,"","","",MoHSW,1701028
13189,Lulayu,18185,,5776,,MoHSW/LGA,Government,,,2013-01-24 00:17:23.030562+00,2013-01-24 00:17:23.030616+00,16,,f,,,"",Under Construction,"","","","",1701087
13190,Lung'wa,18187,,5762,,MoHSW/LGA,Government,,,2013-01-24 00:17:23.208523+00,2013-01-24 00:17:23.208561+00,16,,f,,,"",Under Construction,"","","",MoHSW,1701073
13191,Madilana,18189,,5777,,MoHSW/LGA,Government,,,2013-01-24 00:17:23.444896+00,2013-01-24 00:17:23.444953+00,16,,f,,,"",Under Construction,"","","","",1701088
13192,Maduhu,18114,,5720,,"","",,,2013-01-24 00:17:23.607921+00,2013-01-24 00:17:23.607976+00,16,,f,,,"",Operating,"","","","",1701029
13193,Mahembe,18191,,5721,,MoHSW/LGA,Government,,,2013-01-24 00:17:23.782508+00,2013-01-24 00:17:23.782547+00,16,,f,,,"",Operating,19,"","","",1701030
13194,Majahida AICT,18192,,5722,,AICT,FBO,,,2013-01-24 00:17:24.041404+00,2013-01-24 00:17:24.041444+00,16,,f,,,"",Operating,"","","","",1701031
13195,Masewa,18194,,5723,,MoHSW/LGA,Government,,,2013-01-24 00:17:24.265556+00,2013-01-24 00:17:24.265608+00,16,,f,,,"",Operating,23,"","","",1701032
13196,Matale,18195,,5724,,MoHSW/LGA,Government,,,2013-01-24 00:17:24.432811+00,2013-01-24 00:17:24.432867+00,16,,f,,,"",Operating,42,"","","",1701033
13197,Matongo - Gerezani,18196,,5763,,Prisons,Government,,,2013-01-24 00:17:24.805654+00,2013-01-24 00:17:24.805737+00,16,,f,,,"",Operating,21,"","","",1701074
13198,Matongo I,18196,,5725,,MoHSW/LGA,Government,,,2013-01-24 00:17:25.059566+00,2013-01-24 00:17:25.059623+00,16,,f,,,"",Operating,20,"","","",1701035
13199,Mhunze,18197,,5726,,MoHSW/LGA,Government,,,2013-01-24 00:17:25.27527+00,2013-01-24 00:17:25.275313+00,16,,f,,,"",Operating,24,"","","",1701036
13200,Migato,18198,,5727,,MoHSW/LGA,Government,,,2013-01-24 00:17:25.482955+00,2013-01-24 00:17:25.483056+00,16,,f,,,"",Operating,25,"","","",1701037
13201,Miswaki,18199,,5728,,MoHSW/LGA,Government,,,2013-01-24 00:17:25.721681+00,2013-01-24 00:17:25.721737+00,16,,f,,,"",Operating,52,"","","",1701038
13202,Mitobo,18201,,5729,,MoHSW/LGA,Government,,,2013-01-24 00:17:25.977188+00,2013-01-24 00:17:25.97723+00,16,,f,,,"",Operating,55,"","","",1701039
13203,Muungano,18144,,5730,,MoHSW/LGA,Government,,,2013-01-24 00:17:26.204472+00,2013-01-24 00:17:26.204531+00,17,,f,,,"",Operating,26,"","","",1701040
13204,Mwabuki,18202,,5778,,MoHSW/LGA,Government,,,2013-01-24 00:17:26.456507+00,2013-01-24 00:17:26.456545+00,16,,f,,,"",Under Construction,"","","","",1701089
13205,Mwadobana,18203,,5779,,MoHSW/LGA,Government,,,2013-01-24 00:17:26.683871+00,2013-01-24 00:17:26.683911+00,16,,f,,,"",Under Construction,"","","","",1701090
13206,Mwagimagi,18204,,5780,,MoHSW/LGA,Government,,,2013-01-24 00:17:26.935041+00,2013-01-24 00:17:26.935093+00,16,,f,,,"",Under Construction,"","","","",1701091
13207,Mwakibuga,18205,,5731,,MoHSW/LGA,Government,,,2013-01-24 00:17:27.162119+00,2013-01-24 00:17:27.162168+00,16,,f,,,"",Operating,"","","","",1701041
13208,Mwamapalala Rc,18207,,5732,,RC,FBO,,,2013-01-24 00:17:27.390635+00,2013-01-24 00:17:27.390688+00,16,,f,,,"",Operating,27,"","","",1701043
13209,Mwamlapa,18208,,5764,,MoHSW/LGA,Government,,,2013-01-24 00:17:27.651121+00,2013-01-24 00:17:27.651179+00,16,,f,,,"",Operating,"","","",MoHSW,1701075
13210,Mwanaleguma,18144,,5733,,Private,Private,,,2013-01-24 00:17:27.82672+00,2013-01-24 00:17:27.826762+00,16,,f,,,"",Operating,"","","","",1701044
13211,Mwanunui,18210,,5781,,MoHSW/LGA,Government,,,2013-01-24 00:17:28.078707+00,2013-01-24 00:17:28.078757+00,16,,f,,,"",Under Construction,"","","","",1701092
13212,Mwasinasi,18211,,5734,,MoHSW/LGA,Government,,,2013-01-24 00:17:28.330266+00,2013-01-24 00:17:28.330315+00,16,,f,,,"",Operating,"","","","",1701045
13213,Mwasubuya,18212,,5735,,MoHSW/LGA,Government,,,2013-01-24 00:17:28.568396+00,2013-01-24 00:17:28.568445+00,16,,f,,,"",Operating,"","","","",1701046
13214,Mwaswale,18214,,5736,,MoHSW/LGA,Government,,,2013-01-24 00:17:28.824323+00,2013-01-24 00:17:28.824368+00,16,,f,,,"",Operating,28,"","","",1701047
13215,Nanga,18215,,5765,,MoHSW/LGA,Government,,,2013-01-24 00:17:29.064143+00,2013-01-24 00:17:29.064192+00,16,,f,,,"",Under Construction,"","","",MoHSW,1701076
13216,Nangale,18217,,5766,,MoHSW/LGA,Government,,,2013-01-24 00:17:29.345841+00,2013-01-24 00:17:29.345883+00,16,,f,,,"",Complete,"","","",MoHSW,1701077
13217,Ndolelezi,18218,,5767,,MoHSW/LGA,Government,,,2013-01-24 00:17:29.508422+00,2013-01-24 00:17:29.508478+00,16,,f,,,"",Under Construction,"","","",MoHSW,1701078
13218,Ng'alita,18219,,5737,,MoHSW/LGA,Government,,,2013-01-24 00:17:29.737063+00,2013-01-24 00:17:29.737118+00,16,,f,,,"",Operating,"","","","",1701048
13219,Ng'walali,18220,,5783,,MoHSW/LGA,Government,,,2013-01-24 00:17:30.029522+00,2013-01-24 00:17:30.029574+00,16,,f,,,"",Under Construction,"","","","",1701094
13220,Ng'wang'wale,18221,,5768,,MoHSW/LGA,Government,,,2013-01-24 00:17:30.204581+00,2013-01-24 00:17:30.204624+00,16,,f,,,"",Under Construction,"","","","",1701079
13221,Ngala,18223,,5782,,MoHSW/LGA,Government,,,2013-01-24 00:17:30.422116+00,2013-01-24 00:17:30.422157+00,16,,f,,,"",Under Construction,"","","","",1701093
13222,Ngeme,18224,,5738,,MoHSW/LGA,Government,,,2013-01-24 00:17:30.650226+00,2013-01-24 00:17:30.65027+00,16,,f,,,"",Operating,29,"","","",1701049
13223,Ngulyati,18226,,5739,,MoHSW/LGA,Government,,,2013-01-24 00:17:30.955788+00,2013-01-24 00:17:30.955845+00,17,,f,,,"",Operating,30,"","","",1701050
15730,Babayu,20593,,2,,LGA,Government,,,2013-01-24 00:24:07.915105+00,2013-01-24 00:24:07.915176+00,16,,f,,,"",Operating,2,"",KDO/KIJ/319,"",101002
13224,Nhobora,18228,,5784,,MoHSW/LGA,Government,,,2013-01-24 00:17:31.202899+00,2013-01-24 00:17:31.202968+00,16,,f,,,"",Under Construction,"","","","",1701095
13225,Nkindwabiye,18229,,5785,,MoHSW/LGA,Government,,,2013-01-24 00:17:31.424737+00,2013-01-24 00:17:31.424778+00,16,,f,,,"",Under Construction,"","","","",1701096
13226,Nkololo,18231,,5740,,MoHSW/LGA,Government,,,2013-01-24 00:17:31.631521+00,2013-01-24 00:17:31.631579+00,16,,f,,,"",Operating,31,"","","",1701051
13227,Nkoma,18233,,5741,,MoHSW/LGA,Government,,,2013-01-24 00:17:31.856131+00,2013-01-24 00:17:31.856172+00,17,,f,-3.0494,33.9968,"",Operating,32,"","","",1701052
13228,Nkuyu,18234,,5769,,MoHSW/LGA,Government,,,2013-01-24 00:17:32.076231+00,2013-01-24 00:17:32.076397+00,16,,f,,,"",Under Construction,"","","",MoHSW,1701080
13229,Nyamalapa,18235,,5742,,MoHSW/LGA,Government,,,2013-01-24 00:17:32.337472+00,2013-01-24 00:17:32.337512+00,16,,f,-2.97742,33.94038,"",Operating,44,"","","",1701053
13230,Nyamikoma,18236,,5743,,MoHSW/LGA,Government,,,2013-01-24 00:17:32.509402+00,2013-01-24 00:17:32.509445+00,16,,f,,,"",Operating,Not Allocated,"","","",1701054
13231,Nyamswa,18237,,5786,,MoHSW/LGA,Government,,,2013-01-24 00:17:32.791358+00,2013-01-24 00:17:32.791416+00,16,,f,,,"",Under Construction,"","","","",1701097
13232,Nyangokolwa,18238,,5770,,MoHSW/LGA,Government,,,2013-01-24 00:17:32.965173+00,2013-01-24 00:17:32.965213+00,16,,f,,,"",Under Construction,"","","",MoHSW,1701081
13233,Nyaumata,18239,,5744,,MoHSW/LGA,Government,,,2013-01-24 00:17:33.201071+00,2013-01-24 00:17:33.201121+00,16,,f,-2.7345,33.96787,"",Operating,45,"","","",1701055
13234,Nyawa,18241,,5745,,MoHSW/LGA,Government,,,2013-01-24 00:17:33.452381+00,2013-01-24 00:17:33.452437+00,16,,f,-2.45943,34.13071,"",Operating,33,"","","",1701056
13235,Old Maswa,18242,,5746,,RC,FBO,,,2013-01-24 00:17:33.692042+00,2013-01-24 00:17:33.692089+00,16,,f,-2.6824,33.9943,"",Operating,34,"","","",1701057
13236,Sagata,18243,,5747,,MoHSW/LGA,Government,,,2013-01-24 00:17:33.929081+00,2013-01-24 00:17:33.929122+00,16,,f,-2.7446,34.23751,"",Operating,35,"","","",1701058
13237,Sakwe,18245,,5748,,MoHSW/LGA,Government,,,2013-01-24 00:17:34.118282+00,2013-01-24 00:17:34.118335+00,16,,f,-2.76762,33.85963,"",Operating,36,"","","",1701059
13238,Sapiwi,18246,,5749,,MoHSW/LGA,Government,,,2013-01-24 00:17:34.376463+00,2013-01-24 00:17:34.376504+00,16,,f,-2.3728,33.96299,"",Operating,37,"","","",1701060
13239,Sawida,18247,,5750,,MoHSW/LGA,Government,,,2013-01-24 00:17:34.605033+00,2013-01-24 00:17:34.605077+00,16,,f,-2.86667,33.7,"",Operating,38,"","","",1701061
13240,Senani,18248,,5771,,MoHSW/LGA,Government,,,2013-01-24 00:17:34.814368+00,2013-01-24 00:17:34.814415+00,16,,f,,,"",Under Construction,"","","",MoHSW,1701082
13241,Shishani,18249,,5772,,MoHSW/LGA,Government,,,2013-01-24 00:17:35.087243+00,2013-01-24 00:17:35.087287+00,16,,f,,,"",Under Construction,"","","",MoHSW,1701083
13242,Songambele RC,18231,,5751,,RC,FBO,,,2013-01-24 00:17:35.34968+00,2013-01-24 00:17:35.349736+00,17,,f,,,"",Operating,"","","","",1701062
13243,Sunzula,18251,,5752,,MoHSW/LGA,Government,,,2013-01-24 00:17:35.592682+00,2013-01-24 00:17:35.592739+00,16,,f,-2.87832,33.81254,"",Operating,40,"","","",1701063
13244,Sweya,18144,,5753,,Private,Private,,,2013-01-24 00:17:35.896121+00,2013-01-24 00:17:35.896165+00,16,,f,,,"",Not  Operating,"","","","",1701064
13245,Wazazi,18146,,5787,,Private,Private,,,2013-01-24 00:17:36.073432+00,2013-01-24 00:17:36.073486+00,16,,f,,,"",Operating,"","","","",1701098
13246,Wazazi,18184,,5754,,Private,Private,,,2013-01-24 00:17:36.379001+00,2013-01-24 00:17:36.379059+00,16,,f,,,"",Operating,"","","","",1701065
13247,Zagayu,18252,,5755,,MoHSW/LGA,Government,,,2013-01-24 00:17:36.607078+00,2013-01-24 00:17:36.607135+00,17,,f,-2.95,33.75,"",Operating,41,"","","",1701066
13248,Zanzui,18253,,5756,,MoHSW/LGA,Government,,,2013-01-24 00:17:36.856613+00,2013-01-24 00:17:36.85667+00,16,,f,-2.96339,33.81114,"",Operating,49,"","","",1701067
13249,Biharamulo,18255,,6352,,MoHSW/LGA,Government,,,2013-01-24 00:17:36.950727+00,2013-01-24 00:17:36.950774+00,16,,f,,,"",Under Construction,"",On Going Construction,"","",1804026
13250,Biharamulo DDH,18255,,6331,,RC,FBO,,,2013-01-24 00:17:37.103754+00,2013-01-24 00:17:37.103798+00,18,,f,-2.63381,31.34468,"",Operating,1,"","","",1804001
13251,Kalenge,18255,,6332,,MoHSW/LGA,Government,,,2013-01-24 00:17:37.269402+00,2013-01-24 00:17:37.269445+00,16,,f,-3.15412,31.06541,"",Operating,14,"","",Other,1804003
13252,Kaniha,18255,,6333,,MoHSW/LGA,Government,,,2013-01-24 00:17:37.420503+00,2013-01-24 00:17:37.420546+00,16,,f,,,"",Operating,44,"","","",1804004
13253,Kasozibakaya,18255,,6334,,MoHSW/LGA,Government,,,2013-01-24 00:17:37.522379+00,2013-01-24 00:17:37.522589+00,16,,f,,,"",Operating,46,"","","",1804005
13254,Katahoka,18255,,6335,,MoHSW/LGA,Government,,,2013-01-24 00:17:37.663106+00,2013-01-24 00:17:37.663161+00,16,,f,,,"",Operating,48,"","","",1804006
13255,Katoke,18255,,6336,,MoHSW/LGA,Government,,,2013-01-24 00:17:37.753347+00,2013-01-24 00:17:37.753402+00,16,,f,-2.65808,31.36197,"",Operating,19,"",ZM/KIJ/325,NIMR,1804007
13256,Kikomakoma,18255,,6337,,MoHSW/LGA,Government,,,2013-01-24 00:17:37.928794+00,2013-01-24 00:17:37.928838+00,16,,f,-2.80152,31.48745,"",Operating,39,"",ZM/KIJ/323,Other,1804008
13257,Lusahunga,18255,,6338,,MoHSW/LGA,Government,,,2013-01-24 00:17:38.068789+00,2013-01-24 00:17:38.068847+00,16,,f,-2.89919,31.19892,"",Operating,22,"","",Other,1804009
13258,Mavota,18255,,6339,,MoHSW/LGA,Government,,,2013-01-24 00:17:38.148139+00,2013-01-24 00:17:38.148182+00,16,,f,,,"",Operating,45,"","","",1804010
13259,Mbindi,18255,,6353,,MoHSW/LGA,Government,,,2013-01-24 00:17:38.322667+00,2013-01-24 00:17:38.322727+00,16,,f,,,"",Under Construction,"","","","",1804027
13260,Nyabugombe,18255,,6340,,Assemblies of God,FBO,,,2013-01-24 00:17:38.403425+00,2013-01-24 00:17:38.403467+00,16,,f,-2.632915,30.93085,"",Operating,43,"","",ADS,1804013
13261,Nyabusozi,18255,,6341,,MoHSW/LGA,Government,,,2013-01-24 00:17:38.565858+00,2013-01-24 00:17:38.565903+00,17,,f,,,"",Operating,36,"","","",1804014
13262,Nyakahura,18255,,6342,,MoHSW/LGA,Government,,,2013-01-24 00:17:38.667492+00,2013-01-24 00:17:38.66755+00,17,,f,-2.82482,31.00313,"",Operating,26,"","",Other,1804016
13263,Nyakanazi,18255,,6343,,MoHSW/LGA,Government,,,2013-01-24 00:17:38.842865+00,2013-01-24 00:17:38.842919+00,17,,f,,,"",Operating,Not Allocated,"","",MMAM,1804017
13264,Nyamahanga,18255,,6344,,MoHSW/LGA,Government,,,2013-01-24 00:17:38.930919+00,2013-01-24 00:17:38.930973+00,16,,f,,,"",Operating,27,"","",MMAM,1804018
13265,Nyamigogo,18255,,6345,,MoHSW/LGA,Government,,,2013-01-24 00:17:39.136204+00,2013-01-24 00:17:39.136265+00,16,,f,-2.78718,31.64336,"",Operating,28,"",ZM/KIJ/326,Other,1804019
13266,Nyantakara,18255,,6346,,MoHSW/LGA,Government,,,2013-01-24 00:17:39.228175+00,2013-01-24 00:17:39.22823+00,16,,f,-3.18982,31.36227,"",Operating,42,"",ZM/KIJ/299,Other,1804020
13267,Ruganzu,18255,,6347,,MoHSW/LGA,Government,,,2013-01-24 00:17:39.402524+00,2013-01-24 00:17:39.402581+00,16,,f,-3.10842,31.13709,"",Operating,31,"","",Other,1804021
13268,Rukaragata,18255,,6348,,MoHSW/LGA,Government,,,2013-01-24 00:17:39.494942+00,2013-01-24 00:17:39.494999+00,17,,f,-2.64877,31.31039,"",Operating,40,Edited name from Rukalagata to Rukaragata,"",NIMR,1804022
13269,Runazi,18255,,6349,,MoHSW/LGA,Government,,,2013-01-24 00:17:39.624417+00,2013-01-24 00:17:39.62446+00,16,,f,-2.79683,31.43199,"",Operating,30,"",ZM/KIJ/345,NIMR,1804023
13270,St. Otto,18255,,6350,,"",FBO,,,2013-01-24 00:17:39.788677+00,2013-01-24 00:17:39.788721+00,16,,f,-2.66846,31.36309,"",Operating,Not Allocated,"","",NIMR,1804024
13271,Tumaini,18255,,6351,,Private,Private,,,2013-01-24 00:17:39.929244+00,2013-01-24 00:17:39.929302+00,16,,f,,,"",Operating,Not Allocated,"","","",1804025
13272,Bujugo,18259,,6256,,MoHSW/LGA,Government,,,2013-01-24 00:17:40.173295+00,2013-01-24 00:17:40.173339+00,16,,f,-1.40038,31.71573,"",Operating,37,"",KGR/KIJ/619,NIMR,1802001
13273,Bulila,18261,,6257,,Private,Private,,,2013-01-24 00:17:40.457074+00,2013-01-24 00:17:40.457128+00,16,,f,-1.47508,31.74476,"",Operating,58,"",ZM/KIJ/439,"",1802002
13274,Bulinda,18264,,6258,,MoHSW/LGA,Government,,,2013-01-24 00:17:40.697365+00,2013-01-24 00:17:40.697422+00,16,,f,,,"",Operating,57,"",WLR/VC/98,MMAM,1802003
13275,Bushasha,18267,,6259,,MoHSW/LGA,Government,,,2013-01-24 00:17:40.936918+00,2013-01-24 00:17:40.936975+00,16,,f,-1.07657,31.80499,"",Operating,16,"",ZM/KIJ/402,Other,1802004
13276,Butainamwa,18269,,6260,,Lutheran,FBO,,,2013-01-24 00:17:41.178998+00,2013-01-24 00:17:41.17904+00,16,,f,,,"",Operating,59,"",ZM/KIJ/419,"",1802005
13277,Buzi,18271,,6261,,MoHSW/LGA,Government,,,2013-01-24 00:17:41.443143+00,2013-01-24 00:17:41.443188+00,16,,f,,,"",Operating,52,"",ZM/KIJ/404,"",1802006
13278,Bwizanduru,18273,,6262,,MoHSW/LGA,Government,,,2013-01-24 00:17:41.673137+00,2013-01-24 00:17:41.67319+00,16,,f,-1.39027,31.7639,"",Operating,9,"",WLR/VC/98,Other,1802007
13279,Ibosa,18275,,6263,,"","",,,2013-01-24 00:17:41.917108+00,2013-01-24 00:17:41.917161+00,16,,f,-1.24665,31.8415,"",Operating,55,"",ZM/VC/106,"",1802008
13280,Ibwera,18277,,6264,,MoHSW/LGA,Government,,,2013-01-24 00:17:42.160348+00,2013-01-24 00:17:42.160399+00,16,,f,-1.48137,31.63078,"",Operating,39,"",ZM/KIJ/420,Other,1802009
13281,Ikunyu,18280,,6265,,MoHSW/LGA,Government,,,2013-01-24 00:17:42.46131+00,2013-01-24 00:17:42.461364+00,16,,f,-1.50718,31.57184,"",Operating,43,"",WLR/VC/158,"",1802010
13282,Izimbya,18282,,6266,,Lutheran,FBO,,,2013-01-24 00:17:42.706983+00,2013-01-24 00:17:42.707032+00,18,,f,-1.55155,31.45839,"",Operating,45,"",ZM/VC/147,Other,1802011
13283,Kaagya Disp,18283,,6290,,MoHSW/LGA,Government,,,2013-01-24 00:17:42.989258+00,2013-01-24 00:17:42.989303+00,16,,f,,,"",Operating,"","",ZM/KIJ/401,"",1802037
13284,Kabale,18285,,6267,,MoHSW/LGA,Government,,,2013-01-24 00:17:43.241648+00,2013-01-24 00:17:43.241784+00,16,,f,-1.33273,31.75451,"",Operating,10,"",WLR/VC/95,Other,1802013
13285,Kaibanja,18287,,6291,,"","",,,2013-01-24 00:17:43.485466+00,2013-01-24 00:17:43.485518+00,16,,f,,,"",Operating,60,"",ZM/KIJ/422,"",1802038
13286,Kalema,18289,,6268,,MoHSW/LGA,Government,,,2013-01-24 00:17:43.748675+00,2013-01-24 00:17:43.748732+00,16,,f,-1.21215,31.82741,"",Operating,12,"",ZM/VC/143,Other,1802014
13287,Kanazi,18291,,6269,,MoHSW/LGA,Government,,,2013-01-24 00:17:44.011482+00,2013-01-24 00:17:44.011539+00,17,,f,-1.462562,31.737618,"",Operating,38,"",ZM/KIJ/439,GPS_DANIDA,1802015
13288,Kashozi,18292,,6270,,Parastatal,Government,,,2013-01-24 00:17:44.188745+00,2013-01-24 00:17:44.273381+00,16,,f,-1.22549,31.80784,"",Operating,5,"",ZM/VC/107,Other,1802016
13289,Katare,18294,,6271,,Lutheran,FBO,,,2013-01-24 00:17:44.533459+00,2013-01-24 00:17:44.533508+00,16,,f,-1.08723,31.83742,"",Operating,15,"",KGR/KIJ/618,Other,1802017
13290,Katoma,18296,,6272,,MoHSW/LGA,Government,,,2013-01-24 00:17:44.829036+00,2013-01-24 00:17:44.829081+00,16,,f,-1.29175,31.76164,"",Operating,11,"",WLR/VC/110,Other,1802018
13291,Katoro,18298,,6273,,MoHSW/LGA,Government,,,2013-01-24 00:17:45.07099+00,2013-01-24 00:17:45.071047+00,17,,f,-1.39549,31.49582,"",Operating,4,"",ZM/KIJ/418,Other,1802019
13292,Kibirizi,18300,,6274,,MoHSW/LGA,Government,,,2013-01-24 00:17:45.293075+00,2013-01-24 00:17:45.293118+00,16,,f,,,"",Operating,53,"",KGR/KIJ/538,"",1802020
13293,Kihumulo,18302,,6292,,Other MDAs,Government,,,2013-01-24 00:17:45.597439+00,2013-01-24 00:17:45.597496+00,16,,f,,,"",Operating,56,"",ZM/KIJ/620,"",1802039
13294,Kishanje,18303,,6275,,MoHSW/LGA,Government,,,2013-01-24 00:17:45.820955+00,2013-01-24 00:17:45.821074+00,17,,f,-1.11223,31.84085,"",Operating,14,"",ZM/IKJ/144,Other,1802022
13295,Kishogo,18305,,6276,,MoHSW/LGA,Government,,,2013-01-24 00:17:46.085298+00,2013-01-24 00:17:46.085354+00,16,,f,-1.3859,31.64444,"",Operating,40,"",ZM/KIJ/409,Other,1802023
13296,Kyamalange,18306,,6277,,MoHSW/LGA,Government,,,2013-01-24 00:17:46.336238+00,2013-01-24 00:17:46.336282+00,16,,f,,,"",Operating,51,Correct name is Kyamalange and not Kyamalage,WLR/VC/146,"",1802024
13297,Kyamulaire,18308,,6278,,MoHSW/LGA,Government,,,2013-01-24 00:17:46.650429+00,2013-01-24 00:17:46.650473+00,16,,f,-1.40825,31.40188,"",Operating,42,Edited name from Kyamulare to Kyamulaire,KGR/KIJ/542,Other,1802025
13298,Maruku,18309,,6279,,MoHSW/LGA,Government,,,2013-01-24 00:17:46.914669+00,2013-01-24 00:17:46.914725+00,16,,f,-1.40635,31.79305,"",Operating,8,"",WLR/VC/91,Other,1802026
13299,Mikoni,18311,,6280,,MoHSW/LGA,Government,,,2013-01-24 00:17:47.104764+00,2013-01-24 00:17:47.104819+00,16,,f,-1.54217,31.58632,"",Operating,41,"",ZM/KIJ/429,"",1802027
13300,Mwemage,18312,,6281,,RC,FBO,,,2013-01-24 00:17:47.364052+00,2013-01-24 00:17:47.364096+00,17,,f,,,"",Operating,6,"",ZM/KIJ/433,"",1802028
13301,Nsheshe,18314,,6282,,MoHSW/LGA,Government,,,2013-01-24 00:17:47.616668+00,2013-01-24 00:17:47.616712+00,16,,f,-1.68484,31.46541,"",Operating,46,"",WLR/VC/621,Other,1802029
13302,Ntoma,18315,,6283,,Lutheran,FBO,,,2013-01-24 00:17:47.891127+00,2013-01-24 00:17:47.891172+00,16,,f,,,"",Operating,7,"",WLR/VC/100,"",1802030
13303,Nyakibimbiri,18317,,6284,,MoHSW/LGA,Government,,,2013-01-24 00:17:48.152945+00,2013-01-24 00:17:48.153+00,16,,f,,,"",Operating,61,Edited name from Nyakibimbimbi to Nyakibimbiri,ZM/KIJ/409,MMAM,1802031
13304,Ombweya,18318,,6285,,MoHSW/LGA,Government,,,2013-01-24 00:17:48.41465+00,2013-01-24 00:17:48.414727+00,16,,f,-1.60316,31.37841,"",Operating,49,"",KGR/KIJ/537,Other,1802032
13305,Rubale,18320,,6286,,MoHSW/LGA,Government,,,2013-01-24 00:17:48.680059+00,2013-01-24 00:17:48.680116+00,17,,f,-1.59787,31.52018,"",Operating,44,"",WLR/VC/161,GPS_DANIDA,1802033
13306,Rugaze,18321,,6287,,MoHSW/LGA,Government,,,2013-01-24 00:17:48.869575+00,2013-01-24 00:17:48.869619+00,16,,f,-1.57911,31.42833,"",Operating,47,"",ZM/VC/149,Other,1802034
13307,Ruhunga,18322,,6288,,Other MDAs,Government,,,2013-01-24 00:17:49.143715+00,2013-01-24 00:17:49.143772+00,16,,f,-1.47617,31.43773,"",Operating,48,"",ZM/KIJ/155,Other,1802035
13308,Rwamulumba,18324,,6289,,Prisons,Government,,,2013-01-24 00:17:49.397325+00,2013-01-24 00:17:49.397382+00,16,,f,-1.3493,31.74335,"",Operating,50,"",WLR/VC/93,Other,1802036
13309,06/692KJ,18327,,6419,,TPDF,Government,,,2013-01-24 00:17:49.715233+00,2013-01-24 00:17:49.715289+00,16,,f,,,"",Operating,4,"","","",1806011
13310,Buhembe,18329,,6409,,MoHSW/LGA,Government,,,2013-01-24 00:17:49.979551+00,2013-01-24 00:17:49.979595+00,16,,f,-1.282501,31.803105,"",Operating,16,"","",Topo,1806001
13311,Bukoba  s.s,18256,,6427,,MOE/LGA,Government,,,2013-01-24 00:17:50.130971+00,2013-01-24 00:17:50.13102+00,20,,f,,,"",Operating,26,"","","",1806019
13312,Bukoba Town H/C,18256,,6429,,Lutheran,FBO,,,2013-01-24 00:17:50.22163+00,2013-01-24 00:17:50.221686+00,17,,f,,,"",Operating,7,"","","",1806021
13313,Buyekela Policeline,18331,,6410,,Police,Government,,,2013-01-24 00:17:50.471299+00,2013-01-24 00:17:50.471356+00,16,,f,,,"",Operating,8,"","","",1806002
13314,Hindu Union,18332,,6411,,Private,Private,,,2013-01-24 00:17:50.719072+00,2013-01-24 00:17:50.719137+00,16,,f,,,"",Operating,14,"","","",1806003
13315,Ihungo s.s,18256,,6412,,"","",,,2013-01-24 00:17:50.887171+00,2013-01-24 00:17:50.887215+00,17,,f,,,"",Operating,19,"","","",1806004
13316,Ijuganyondo,18334,,6413,,MoHSW/LGA,Government,,,2013-01-24 00:17:51.088104+00,2013-01-24 00:17:51.088157+00,16,,f,,,"",Operating,24,"","","",1806005
13317,Kagemu,18336,,6414,,MoHSW/LGA,Government,,,2013-01-24 00:17:51.337646+00,2013-01-24 00:17:51.337695+00,16,,f,-1.35309,31.8009,"",Operating,3,"","",Other,1806006
13318,Kagera,18256,,6415,,"","",,,2013-01-24 00:17:51.48906+00,2013-01-24 00:17:51.489118+00,18,,f,-1.32984,31.80993,"",Operating,1,"","",Other,1806007
13319,Kagera Regional Hosp,18256,,6430,,MoHSW/CG,Government,,,2013-01-24 00:17:51.579835+00,2013-01-24 00:17:51.579879+00,18,,f,,,"",Operating,1,"","","",1806022
13320,Kahororo,18338,,6416,,MoHSW/LGA,Government,,,2013-01-24 00:17:51.895581+00,2013-01-24 00:17:51.895626+00,16,,f,-1.309288,31.826186,"",Operating,15,"","",Topo,1806008
13321,Karibu,18340,,6417,,Private,Private,,,2013-01-24 00:17:52.137192+00,2013-01-24 00:17:52.137246+00,16,,f,-1.3226,31.80257,"",Operating,12,"","",Other,1806009
13322,Kashai,18342,,6418,,MoHSW/LGA,Government,,,2013-01-24 00:17:52.398905+00,2013-01-24 00:17:52.398979+00,16,,f,,,"",Operating,17,"","","",1806010
13323,Magereza,18343,,6420,,Prisons,Government,,,2013-01-24 00:17:52.562132+00,2013-01-24 00:17:52.562181+00,16,,f,,,"",Operating,11,"","","",1806012
13324,Mugeza Mseto,18256,,6421,,"","",,,2013-01-24 00:17:52.749314+00,2013-01-24 00:17:52.749373+00,17,,f,,,"",Operating,22,"","","",1806013
13325,Nshambya F.F.U,18256,,6428,,MoHSW/LGA,Government,,,2013-01-24 00:17:52.842134+00,2013-01-24 00:17:52.842177+00,16,,f,,,"",Operating,25,"","","",1806020
13326,Rugambwa,18256,,6422,,"","",,,2013-01-24 00:17:53.00429+00,2013-01-24 00:17:53.004333+00,17,,f,,,"",Operating,13,"","","",1806014
13327,Rwamishenye,18345,,6423,,MoHSW/LGA,Government,,,2013-01-24 00:17:53.265398+00,2013-01-24 00:17:53.265454+00,17,,f,-1.31974,31.7945,"",Operating,2,"","",Other,1806015
13328,St. Therese,18256,,6424,,"","",,,2013-01-24 00:17:53.367913+00,2013-01-24 00:17:53.367957+00,17,,f,,,St. Therese Bukoba Medical Centre,Operating,6,"","","",1806016
13329,Tanica,18346,,6425,,Parastatal,Government,,,2013-01-24 00:17:53.608891+00,2013-01-24 00:17:53.608936+00,16,,f,,,"",Operating,10,"","","",1806017
13330,Zamzam,18348,,6426,,MoHSW/LGA,Government,,,2013-01-24 00:17:53.861634+00,2013-01-24 00:17:53.861688+00,17,,f,,,"",Operating,18,"","","",1806018
13331,Bakwata  Na4,18353,,5984,,BAKWATA,FBO,,,2013-01-24 00:17:54.126598+00,2013-01-24 00:17:54.126647+00,16,,f,-3.46717,31.89543,"",Closed,29,"","","",1705038
13332,BAKWATA 1,18356,,6016,,Private,Private,,,2013-01-24 00:17:54.511829+00,2013-01-24 00:17:54.511874+00,16,,f,,,"",Closed,27,"","",MoHSW,1705001
13333,Bakwata Na 2 (Huruma),18358,,5983,,BAKWATA,FBO,,,2013-01-24 00:17:54.763618+00,2013-01-24 00:17:54.763675+00,16,,f,,,"",Operating,23,"","","",1705002
13334,Bakwata Na 3,18356,,5982,,Private,Private,,,2013-01-24 00:17:54.985283+00,2013-01-24 00:17:54.985326+00,16,,f,-3.64538,32.16476,"",Closed,"","","","",1705001
13335,Budoda,18359,,5985,,"","",,,2013-01-24 00:17:55.219713+00,2013-01-24 00:17:55.219757+00,16,,f,,,"",Under Construction,"","","","",1705003
13336,Bugando,18361,,5986,,MoHSW/LGA,Government,,,2013-01-24 00:17:55.583983+00,2013-01-24 00:17:55.584033+00,16,,f,-3.59506,31.95292,"",Operating,10,"","","",1705004
13337,Bugelenga,18362,,5987,,MoHSW/LGA,Government,,,2013-01-24 00:17:55.911701+00,2013-01-24 00:17:55.911755+00,16,,f,,,"",Operating,20,"","","",1705005
13338,Bukandwe,18364,,5988,,MoHSW/LGA,Government,,,2013-01-24 00:17:56.168354+00,2013-01-24 00:17:56.168411+00,16,,f,-3.65546,32.28763,"",Operating,17,Edited name from Bukadwe  to Bukandwe,"","",1705006
13339,Bukombe,18366,,5989,,MoHSW/LGA,Government,,,2013-01-24 00:17:56.547061+00,2013-01-24 00:17:56.547124+00,16,,f,-3.46199,31.89466,"",Operating,11,"","","",1705007
13340,Bukombe,18358,,5990,,MoHSW/LGA,Government,,,2013-01-24 00:17:56.78167+00,2013-01-24 00:17:56.781713+00,18,,f,-3.51478,32.04806,"",Operating,19,"","","",1705008
13341,Bulugala,18369,,5991,,MoHSW/LGA,Government,,,2013-01-24 00:17:57.124918+00,2013-01-24 00:17:57.124976+00,16,,f,,,"",Under Construction,"","","","",1705009
13342,Bunyihuna,18371,,6017,,"","",,,2013-01-24 00:17:57.417008+00,2013-01-24 00:17:57.417066+00,16,,f,,,"",Under Construction,"","","",MoHSW,1705039
13343,Bwelwa,18373,,5992,,MoHSW/LGA,Government,,,2013-01-24 00:17:57.707873+00,2013-01-24 00:17:57.756124+00,16,,f,-3.37528,32.16988,"",Operating,9,"","","",1705010
13344,Iboya,18374,,5993,,MoHSW/LGA,Government,,,2013-01-24 00:17:58.057107+00,2013-01-24 00:17:58.057193+00,17,,f,-3.37265729261,32.1410583661,"",Operating,2,"","","",1705011
13345,Ikunguigazi,18376,,5994,,MoHSW/LGA,Government,,,2013-01-24 00:17:58.345488+00,2013-01-24 00:17:58.345547+00,16,,f,-3.23679,31.92694,"",Operating,16,"","","",1705012
13346,Ikuzi,18379,,5995,,MoHSW/LGA,Government,,,2013-01-24 00:17:58.669998+00,2013-01-24 00:17:58.670042+00,16,,f,-3.38463,31.58507,"",Operating,4,"","","",1705013
13347,Ilolangulu,18381,,5996,,MoHSW/LGA,Government,,,2013-01-24 00:17:58.967452+00,2013-01-24 00:17:58.967495+00,16,,f,-3.29979,32.07829,"",Operating,6,"","","",1705014
13348,Iponya,18382,,5997,,MoHSW/LGA,Government,,,2013-01-24 00:17:59.239525+00,2013-01-24 00:17:59.23958+00,16,,f,-3.7077,32.10209,"",Operating,1,"","","",1705015
13349,Iyogelo,18384,,5998,,MoHSW/LGA,Government,,,2013-01-24 00:17:59.536312+00,2013-01-24 00:17:59.536398+00,16,,f,-3.54836,31.9737,"",Operating,15,"","","",1705016
13350,Kanegele,18385,,5999,,"","",,,2013-01-24 00:17:59.771684+00,2013-01-24 00:17:59.771729+00,16,,f,,,"",Operating,"","","","",1705017
13351,Lubeho,18386,,6000,,IAC CHURCH,FBO,,,2013-01-24 00:18:00.013336+00,2013-01-24 00:18:00.013388+00,16,,f,-3.59996,32.11759,"",Operating,12,"","","",1705018
13352,Lugunga,18388,,6001,,MoHSW/LGA,Government,,,2013-01-24 00:18:00.326494+00,2013-01-24 00:18:00.326549+00,16,,f,-3.5195,32.22652,"",Operating,5,"","","",1705019
13353,Lyambamgongo Wazazi,18389,,6002,,Private,Private,,,2013-01-24 00:18:00.51376+00,2013-01-24 00:18:00.513801+00,16,,f,-3.4933,31.9813,"",Closed,30,"","","",1705020
13354,Magulundinga,18358,,6003,,Private,Private,,,2013-01-24 00:18:00.777611+00,2013-01-24 00:18:00.777667+00,17,,f,,,Dr. Dalali,Operating,31,"Added HF, missing in MHF List","","",1705021
13355,Masumbwe,18353,,6004,,MoHSW/LGA,Government,,,2013-01-24 00:18:01.051245+00,2013-01-24 00:18:01.0513+00,17,,f,-3.65842419501,32.1626453792,"",Operating,8,"","","",1705022
13356,Menonite,18356,,6015,,Menonite,FBO,,,2013-01-24 00:18:01.214987+00,2013-01-24 00:18:01.215042+00,16,,f,,,"",Operating,21,"","",MoHSW,1705036
13357,Mlange,18390,,6005,,MoHSW/LGA,Government,,,2013-01-24 00:18:01.438724+00,2013-01-24 00:18:01.438773+00,16,,f,,,"",Under Construction,Not Allocated,"","","",1705024
13358,Msasani,18391,,6006,,MoHSW/LGA,Government,,,2013-01-24 00:18:01.678775+00,2013-01-24 00:18:01.67883+00,16,,f,,,"",Under Construction,Not Allocated,"","","",1705025
13359,Namonge,18393,,6007,,MoHSW/LGA,Government,,,2013-01-24 00:18:01.908061+00,2013-01-24 00:18:01.908105+00,16,,f,,,"",Under Construction,Not Allocated,"","","",1705027
13360,Nyang'holongo,18395,,6008,,MoHSW/LGA,Government,,,2013-01-24 00:18:02.160611+00,2013-01-24 00:18:02.160655+00,16,,f,-3.40679,32.60304,"",Operating,18,"","","",1705028
13361,Nyanhwiga,18397,,6009,,MoHSW/LGA,Government,,,2013-01-24 00:18:02.406304+00,2013-01-24 00:18:02.406348+00,16,,f,,,"",Under Construction,"","","","",1705029
13362,Nyasato,18398,,6010,,MoHSW/LGA,Government,,,2013-01-24 00:18:02.621897+00,2013-01-24 00:18:02.621938+00,16,,f,,,"",Operating,13,"","","",1705030
13363,Sun Pio,18358,,6018,,RC,FBO,,,2013-01-24 00:18:02.870019+00,2013-01-24 00:18:02.870061+00,17,,f,,,"",Under Construction,"","","",MoHSW,1705041
13364,Ushirika,18400,,6011,,MoHSW/LGA,Government,,,2013-01-24 00:18:03.108555+00,2013-01-24 00:18:03.108604+00,16,,f,-3.36835,32.26198,"",Operating,14,"","","",1705031
13365,Ushirombo,18358,,6012,,MoHSW/LGA,Government,,,2013-01-24 00:18:03.356459+00,2013-01-24 00:18:03.356517+00,17,,f,-3.483333,31.966667,"",Operating,3,"","","",1705032
13366,Uyovu,18356,,6013,,MoHSW/LGA,Government,,,2013-01-24 00:18:03.522361+00,2013-01-24 00:18:03.522404+00,17,,f,-3.33587,31.52566,"",Operating,7,"","","",1705033
13367,Wazazi,18362,,6019,,Private,Private,,,2013-01-24 00:18:03.762996+00,2013-01-24 00:18:03.763052+00,16,,f,,,"",Closed,32,"","",MoHSW,1705042
13368,Wazazi Isebya,18353,,6014,,Private,Private,,,2013-01-24 00:18:04.057584+00,2013-01-24 00:18:04.057627+00,16,,f,,,"",Operating,26,"","","",1705034
13369,Wazazi Kabuhima,18356,,6020,,Private,FBO,,,2013-01-24 00:18:04.286368+00,2013-01-24 00:18:04.286414+00,16,,f,,,"",Operating,24,"","",MoHSW,1705043
13370,Wazazi Lulembela,18353,,6021,,Private,Private,,,2013-01-24 00:18:04.540997+00,2013-01-24 00:18:04.54104+00,16,,f,,,"",Closed,33,"","",MoHSW,1705044
13371,Wazazi Msonga,18358,,6022,,Private,Private,,,2013-01-24 00:18:04.859498+00,2013-01-24 00:18:04.859556+00,16,,f,,,"",Operating,22,"","",MoHSW,1705045
13372,Wazazi Mwenzetu,18353,,6023,,Private,Private,,,2013-01-24 00:18:05.078886+00,2013-01-24 00:18:05.078929+00,16,,f,,,"",Operating,25,"","",MoHSW,1705046
13373,AICT Bunda,18402,,7145,,"","",,,2013-01-24 00:18:05.223966+00,2013-01-24 00:18:05.224011+00,16,,f,-2.01881,33.87204,"",Operating,204040,"","","",2004001
13374,AICT Bunda,18405,,7146,,Others,Others,,,2013-01-24 00:18:05.431085+00,2013-01-24 00:18:05.431125+00,16,,f,-2.01881,33.87204,"",Operating,204040,"","","",2004001
13375,BOMA,18405,,7147,,MoHSW/LGA,Government,,,2013-01-24 00:18:05.651585+00,2013-01-24 00:18:05.651628+00,16,,f,-2.02401,33.8627,"",Operating,204001,"","","",2004002
13376,Bukama SDA,18408,,7148,,SDA,FBO,,,2013-01-24 00:18:05.89711+00,2013-01-24 00:18:05.897155+00,16,,f,,,Ikizu SDA,Operating,204006,"","","",2004003
13377,Bulamba,18411,,7149,,MoHSW/LGA,Government,,,2013-01-24 00:18:06.137461+00,2013-01-24 00:18:06.137512+00,16,,f,-2.13702,33.62727,"",Operating,204002,"","","",2004004
13378,Bunda,18402,,7150,,"","",,,2013-01-24 00:18:06.301933+00,2013-01-24 00:18:06.302024+00,17,,f,-2.01727,33.87041,"",Operating,204004,"","","",2004005
13379,Bunda,18405,,7151,,"","",,,2013-01-24 00:18:06.705817+00,2013-01-24 00:18:06.70588+00,17,,f,-2.01727,33.87041,"",Operating,204004,"","","",2004005
13380,Bunda DDH,18405,,7152,,Lutheran,FBO,,,2013-01-24 00:18:06.883518+00,2013-01-24 00:18:06.883578+00,18,,f,-2.02994,33.87554,"",Operating,204003,"","","",2004006
13381,Busambara,18414,,7153,,MoHSW/LGA,Government,,,2013-01-24 00:18:07.176357+00,2013-01-24 00:18:07.1764+00,16,,f,-2.14896,33.431,"",Operating,204005,"","","",2004007
13382,Guta,18416,,7154,,MoHSW/LGA,Government,,,2013-01-24 00:18:07.363353+00,2013-01-24 00:18:07.3634+00,16,,f,-2.0741,33.73452,"",Operating,204007,"","","",2004008
13383,Hunyari,18418,,7155,,MoHSW/LGA,Government,,,2013-01-24 00:18:07.612187+00,2013-01-24 00:18:07.612242+00,16,,f,-1.98519,34.07843,"",Operating,204008,"","","",2004009
13384,Igundu,18420,,7156,,MoHSW/LGA,Government,,,2013-01-24 00:18:07.8715+00,2013-01-24 00:18:07.871543+00,16,,f,-2.07092,33.3592,"",Operating,204009,"","","",2004010
13385,Ikizu,18421,,7157,,MoHSW/LGA,Government,,,2013-01-24 00:18:08.036274+00,2013-01-24 00:18:08.036319+00,16,,f,-1.90469,34.02154,Nyamuswa,Operating,204010,"","","",2004011
13386,Iramba,18423,,7158,,MoHSW/LGA,Government,,,2013-01-24 00:18:08.286747+00,2013-01-24 00:18:08.286795+00,16,,f,-1.97744,33.39893,"",Operating,204011,"","","",2004012
13387,Kabasa,18425,,7159,,MoHSW/LGA,Government,,,2013-01-24 00:18:08.582319+00,2013-01-24 00:18:08.582363+00,16,,f,-1.97002,33.81458,"",Operating,204012,"","","",2004013
13388,Kangetutya,18427,,7160,,MoHSW/LGA,Government,,,2013-01-24 00:18:08.83892+00,2013-01-24 00:18:08.838977+00,16,,f,-1.93633,33.77784,Wariku,Operating,204041,"","","",2004014
13389,Karukekere,18429,,7161,,MoHSW/LGA,Government,,,2013-01-24 00:18:09.097766+00,2013-01-24 00:18:09.097816+00,16,,f,-2.06709,33.54472,"",Operating,204014,"","","",2004015
13390,Kasahunga,18431,,7162,,MoHSW/LGA,Government,,,2013-01-24 00:18:09.346649+00,2013-01-24 00:18:09.346713+00,17,,f,-2.15067,33.51125,"",Operating,204013,"","","",2004016
13391,Kasuguti,18432,,7163,,MoHSW/LGA,Government,,,2013-01-24 00:18:09.588859+00,2013-01-24 00:18:09.588916+00,17,,f,-2.16534,33.5821,"",Operating,Not Allocated,"","","",2004017
13392,Kibara,18402,,7164,,"","",,,2013-01-24 00:18:09.668551+00,2013-01-24 00:18:09.668594+00,18,,f,-2.15471,33.46759,"",Operating,204015,"","","",2004018
13393,Kibara,18433,,7165,,RC,FBO,,,2013-01-24 00:18:09.919251+00,2013-01-24 00:18:09.919291+00,18,,f,-2.15471,33.46759,"",Operating,204015,"","","",2004018
13394,Kisorya,18435,,7166,,MoHSW/LGA,Government,,,2013-01-24 00:18:10.141317+00,2013-01-24 00:18:10.14136+00,17,,f,-2.10852,33.21952,"",Operating,204016,"","","",2004019
13395,Kung'ombe,18402,,7167,,"","",,,2013-01-24 00:18:10.217587+00,2013-01-24 00:18:10.21763+00,16,,f,-1.97359,33.83685,"",Operating,204017,Undergoing Rehabilitation,"","",2004020
13396,Kung'ombe,18402,,7168,,"","",,,2013-01-24 00:18:10.390643+00,2013-01-24 00:18:10.390699+00,16,,f,-1.97359,33.83685,"",Operating,204017,Undergoing Rehabilitation,"","",2004020
13397,Kunzugu,18437,,7169,,MoHSW/LGA,Government,,,2013-01-24 00:18:10.569067+00,2013-01-24 00:18:10.569116+00,16,,f,-2.05159,33.9156,"",Operating,204042,"","","",2004021
13398,Kurusanga,18439,,7170,,MoHSW/LGA,Government,,,2013-01-24 00:18:10.882715+00,2013-01-24 00:18:10.88277+00,16,,f,-1.85162,34.15324,"",Operating,204018,"","","",2004022
13399,Manchimweru,18441,,7171,,MoHSW/LGA,Government,,,2013-01-24 00:18:11.11071+00,2013-01-24 00:18:11.110766+00,16,,f,-1.87143,34.28699,"",Operating,204038,"","","",2004023
13400,Manyamanyama,18442,,7172,,MoHSW/LGA,Government,,,2013-01-24 00:18:11.350484+00,2013-01-24 00:18:11.350551+00,17,,f,-1.97732,33.8588,"",Operating,204019,"","","",2004024
13401,Marambeka,18443,,7173,,MoHSW/LGA,Government,,,2013-01-24 00:18:11.517779+00,2013-01-24 00:18:11.51783+00,16,,f,-1.87716,34.04926,"",Operating,204032,"","","",2004025
13402,Mariwanda,18444,,7174,,MoHSW/LGA,Government,,,2013-01-24 00:18:11.830769+00,2013-01-24 00:18:11.830816+00,16,,f,-1.97528,34.1439,"",Operating,204037,"","","",2004026
13403,Mcharo,18446,,7175,,MoHSW/LGA,Government,,,2013-01-24 00:18:12.049779+00,2013-01-24 00:18:12.049835+00,16,,f,-2.01478,33.94587,"",Operating,204020,"","","",2004027
13404,Mekomariro,18447,,7200,,"","",,,2013-01-24 00:18:12.274464+00,2013-01-24 00:18:12.274516+00,16,,f,,,"",Operating,"","","",MoHSW,2004048
13405,Mihale,18448,,7176,,MoHSW/LGA,Government,,,2013-01-24 00:18:12.440909+00,2013-01-24 00:18:12.440952+00,16,,f,-2.01715,34.0341,"",Operating,Not Allocated,"","","",2004028
13406,Mihingo,18402,,7177,,"","",,,2013-01-24 00:18:12.592896+00,2013-01-24 00:18:12.592953+00,16,,f,,,"",Operating,Not Allocated,"","","",2004029
13407,Mihingo,18449,,7178,,MoHSW/LGA,Government,,,2013-01-24 00:18:12.842112+00,2013-01-24 00:18:12.842155+00,16,,f,,,"",Operating,Not Allocated,"","","",2004029
13408,Mikomariro,18402,,7179,,"","",,,2013-01-24 00:18:12.932731+00,2013-01-24 00:18:12.932785+00,16,,f,-1.83581,34.20313,"",Operating,204021,"","","",2004030
13409,Mikomariro,18447,,7180,,MoHSW/LGA,Government,,,2013-01-24 00:18:13.166936+00,2013-01-24 00:18:13.166991+00,16,,f,-1.83581,34.20313,"",Operating,204021,"","","",2004030
13410,Mkono Huruma,18405,,7181,,"","",,,2013-01-24 00:18:13.415153+00,2013-01-24 00:18:13.415197+00,16,,f,-2.02497,33.87385,"",Operating,204028,"","","",2004031
13411,Mugeta,18451,,7182,,MoHSW/LGA,Government,,,2013-01-24 00:18:13.622642+00,2013-01-24 00:18:13.6227+00,17,,f,-1.93391,34.21881,"",Operating,204022,"","","",2004032
13412,Mwiruruma,18452,,7183,,MoHSW/LGA,Government,,,2013-01-24 00:18:13.854087+00,2013-01-24 00:18:13.854127+00,16,,f,-2.03218,33.42803,"",Operating,204035,"","","",2004033
13413,Nafuba,18454,,7184,,MoHSW/LGA,Government,,,2013-01-24 00:18:14.081092+00,2013-01-24 00:18:14.081137+00,16,,f,-2.179574,33.301449,"",Operating,204023,"","","",2004034
13414,Namuhula,18402,,7185,,"","",,,2013-01-24 00:18:14.234045+00,2013-01-24 00:18:14.234101+00,16,,f,-2.07971,33.46197,"",Operating,204025,"","","",2004035
13415,Namuhula,18455,,7186,,MoHSW/LGA,Government,,,2013-01-24 00:18:14.409499+00,2013-01-24 00:18:14.409549+00,16,,f,-2.07971,33.46197,"",Operating,204025,"","","",2004035
13416,Nansimo,18456,,7187,,MoHSW/LGA,Government,,,2013-01-24 00:18:14.699607+00,2013-01-24 00:18:14.699664+00,16,,f,-2.1495,33.34691,"",Operating,204024,"","","",2004036
13417,Nyaburundu,18457,,7188,,MoHSW/LGA,Government,,,2013-01-24 00:18:14.923041+00,2013-01-24 00:18:14.923089+00,16,,f,-1.83478,34.09621,"",Operating,204036,"","","",2004037
13418,Nyamatoke,18458,,7189,,MoHSW/LGA,Government,,,2013-01-24 00:18:15.164663+00,2013-01-24 00:18:15.1647+00,16,,f,-2.04034,34.00075,"",Operating,204026,"","","",2004038
13419,Nyangere,18459,,7190,,MoHSW/LGA,Government,,,2013-01-24 00:18:15.455227+00,2013-01-24 00:18:15.455296+00,16,,f,-1.96326,34.01138,"",Operating,204031,"","","",2004039
13420,Salama A,18402,,7191,,"","",,,2013-01-24 00:18:15.535519+00,2013-01-24 00:18:15.535564+00,16,,f,-1.91494,34.11236,"",Operating,204027,"","","",2004040
13421,Salama A,18460,,7192,,MoHSW/LGA,Government,,,2013-01-24 00:18:15.90255+00,2013-01-24 00:18:15.902595+00,16,,f,-1.91494,34.11236,"",Operating,204027,"","","",2004040
13422,Salama Kati,18461,,7193,,MoHSW/LGA,Government,,,2013-01-24 00:18:16.134703+00,2013-01-24 00:18:16.134766+00,16,,f,-1.87451,34.10553,"",Operating,204029,"","","",2004041
13423,Sarawe,18402,,7194,,"","",,,2013-01-24 00:18:16.286581+00,2013-01-24 00:18:16.286626+00,16,,f,-1.93472,34.02967,"",Operating,Not Allocated,"","","",2004042
13424,Sazira,18463,,7195,,MoHSW/LGA,Government,,,2013-01-24 00:18:16.527024+00,2013-01-24 00:18:16.527081+00,16,,f,-2.0038,33.89841,"",Operating,204039,"","","",2004043
13425,Sunsi,18464,,7196,,MoHSW/LGA,Government,,,2013-01-24 00:18:16.778294+00,2013-01-24 00:18:16.778351+00,16,,f,-2.136003,33.212185,"",Operating,204034,"","","",2004044
13426,Tamau,18465,,7197,,MoHSW/LGA,Government,,,2013-01-24 00:18:17.032197+00,2013-01-24 00:18:17.032254+00,16,,f,-2.12219,33.83384,"",Operating,204033,"","","",2004045
13427,Ukombozi,18405,,7198,,"","",,,2013-01-24 00:18:17.280136+00,2013-01-24 00:18:17.280192+00,16,,f,-2.02268,33.8737,"",Operating,204030,"","","",2004046
13428,Victoria,18405,,7199,,"","",,,2013-01-24 00:18:17.455451+00,2013-01-24 00:18:17.455495+00,16,,f,-2.03789611423,33.8556536175,"",Operating,204043,"","","",2004047
13429,Buigiri,18469,,216,,MOHSW,Government,,,2013-01-24 00:18:17.696722+00,2013-01-24 00:18:17.696765+00,16,,f,-6.14021,35.2266,"",Operating,1,"",Dom/kij/468,ADS,104002
13430,Chalinze,18471,,217,,MOHSW,Government,,,2013-01-24 00:18:17.937556+00,2013-01-24 00:18:17.937599+00,16,,f,-6.15992,36.23005,"",Operating,2,"","",ADS,104003
13431,Chamwino RHC,18472,,218,,MOHSW,Government,,,2013-01-24 00:18:18.174262+00,2013-01-24 00:18:18.174307+00,17,,f,-6.9863,36.3768,"",Operating,3,"",Dom/kij/469,"",104004
13432,Chanhumba,18473,,275,,MOHSW,Government,,,2013-01-24 00:18:18.350738+00,2013-01-24 00:18:18.350781+00,16,,f,,,"",Operating,"","",Dom/kij/497,"",104068
13433,Chenene,18476,,219,,MOHSW,Government,,,2013-01-24 00:18:18.587554+00,2013-01-24 00:18:18.587603+00,16,,f,-5.56949,35.84576,"",Operating,5,"",Dom/kij/485,NIMR,104006
13434,Chiboli,18479,,220,,MOHSW,Government,,,2013-01-24 00:18:18.75243+00,2013-01-24 00:18:18.752487+00,16,,f,-6.85659,35.81992,"",Operating,6,"",Dom/kij/505,NIMR,104007
13435,Chifukulo,18482,,221,,MOHSW,Government,,,2013-01-24 00:18:19.055941+00,2013-01-24 00:18:19.056002+00,16,,f,-5.57151,35.51879,"",Operating,7,"","","",104008
13436,Chilonwa,18484,,222,,MOHSW,Government,,,2013-01-24 00:18:19.31171+00,2013-01-24 00:18:19.311753+00,16,,f,-6.033333,36.133333,Nzali,Operating,67,"",Dom/kij/467,NIMR,104010
13437,Chinangali I,18486,,276,,MOHSW,Government,,,2013-01-24 00:18:19.528084+00,2013-01-24 00:18:19.528126+00,16,,f,,,"",Operating,"","",Dom/kij/472,"",104069
15787,Masawi,20678,,55,,LGA,Government,,,2013-01-24 00:24:23.675697+00,2013-01-24 00:24:23.675741+00,16,,f,,,"",Operating,57,"",KDO/KIJ/294,"",101059
13438,Chinangali II,18487,,223,,MOHSW,Government,,,2013-01-24 00:18:19.767855+00,2013-01-24 00:18:19.767898+00,16,,f,-6.14519,36.8578,"",Operating,9,"",Dom/kij/470,NIMR,104012
13439,Chinoje,18489,,224,,MOHSW,Government,,,2013-01-24 00:18:20.002629+00,2013-01-24 00:18:20.002673+00,16,,f,-6.4296,36.11776,"",Operating,10,"",Dom/kij/499,NIMR,104013
13440,Chinugulu,18491,,225,,MOHSW,Government,,,2013-01-24 00:18:20.293737+00,2013-01-24 00:18:20.293779+00,16,,f,-6.90156,35.39426,"",Operating,11,"",Dom/kij/69,NIMR,104014
13441,Chiwondo,18493,,226,,MOHSW,Government,,,2013-01-24 00:18:20.534667+00,2013-01-24 00:18:20.534708+00,16,,f,-5.72571,36.22956,"",Operating,12,"",Dom/kij/483,NIMR,104015
13442,Dabalo,18494,,227,,MOHSW,Government,,,2013-01-24 00:18:20.70924+00,2013-01-24 00:18:20.709283+00,16,,f,-5.80447,36.11835,"",Operating,13,"",Dom/kij/25,NIMR,104016
13443,Fufu,18496,,228,,MOHSW,Government,,,2013-01-24 00:18:20.959404+00,2013-01-24 00:18:20.959444+00,16,,f,-6.69144,35.97719,"",Operating,14,"",Dom/kij/107,NIMR,104017
13444,Gwandi,18498,,229,,MOHSW,Government,,,2013-01-24 00:18:21.192475+00,2013-01-24 00:18:21.192518+00,16,,f,-5.44814,36.3933,"",Operating,15,"",Dom/kij/490,NIMR,104018
